Date, Time, mavlink_attitude_t.roll, mavlink_attitude_t.pitch, mavlink_attitude_t.yaw, mavlink_attitude_t.rollspeed, mavlink_attitude_t.pitchspeed, mavlink_attitude_t.yawspeed, mavlink_vfr_hud_t.groundspeed, mavlink_vfr_hud_t.heading, mavlink_mission_request_t.seq, mavlink_mission_request_t.mission_type, mavlink_mission_request_t.target_component, mavlink_mission_item_int_t.current, mavlink_mission_count_t.count, mavlink_mission_current_t.seq
10/6/2020, 12:21:14 ,0.01749271,0.01297233,-2.199645,0.1609364,0.07774252,0.02980134,0.5268804,233,33,0,190,0, t,2
10/6/2020, 12:21:14 ,0.01749271,0.01297233,-2.199645,0.1609364,0.07774252,0.02980134,0.5128442,233,33,0,190,0, t,2
10/6/2020, 12:21:14 ,0.01749271,0.01297233,-2.199645,0.1609364,0.07774252,0.02980134,0.5128442,233,33,0,190,0, t,2
10/6/2020, 12:21:14 ,0.02388121,-0.01970968,-2.199364,-0.2245179,-0.02215008,-0.003728744,0.5128442,233,33,0,190,0, t,2
10/6/2020, 12:21:14 ,0.02388121,-0.01970968,-2.199364,-0.2245179,-0.02215008,-0.003728744,0.4796709,233,33,0,190,0, t,2
10/6/2020, 12:21:15 ,0.008307045,-0.003705628,-2.201947,0.1506856,0.04506018,-0.01547172,0.4796709,233,33,0,190,0, t,2
10/6/2020, 12:21:15 ,0.008307045,-0.003705628,-2.201947,0.1506856,0.04506018,-0.01547172,0.4821504,233,33,0,190,0, t,2
10/6/2020, 12:21:15 ,0.008307045,-0.003705628,-2.201947,0.1506856,0.04506018,-0.01547172,0.4821504,233,33,0,190,0, t,2
10/6/2020, 12:21:15 ,0.05180562,-0.01801876,-2.213578,-0.07130054,-0.1043819,-0.01605436,0.4821504,233,33,0,190,0, t,2
10/6/2020, 12:21:15 ,0.05180562,-0.01801876,-2.213578,-0.07130054,-0.1043819,-0.01605436,0.4588175,233,33,0,190,0, t,2
10/6/2020, 12:21:15 ,0.05180562,-0.01801876,-2.213578,-0.07130054,-0.1043819,-0.01605436,0.4588175,233,33,0,190,0, t,2
10/6/2020, 12:21:16 ,-0.01150844,0.01698105,-2.22282,0.02633081,0.1592471,-0.02691892,0.4588175,233,33,0,190,0, t,2
10/6/2020, 12:21:16 ,-0.01150844,0.01698105,-2.22282,0.02633081,0.1592471,-0.02691892,0.4347552,232,33,0,190,0, t,2
10/6/2020, 12:21:16 ,-0.01150844,0.01698105,-2.22282,0.02633081,0.1592471,-0.02691892,0.4198087,231,33,0,190,0, t,2
10/6/2020, 12:21:17 ,0.009005871,-0.003250357,-2.251531,0.004470893,-0.06519954,-0.04821934,0.4198087,231,33,0,190,0, t,2
10/6/2020, 12:21:17 ,0.009005871,-0.003250357,-2.251531,0.004470893,-0.06519954,-0.04821934,0.4215853,231,33,0,190,0, t,2
10/6/2020, 12:21:17 ,0.009005871,-0.003250357,-2.251531,0.004470893,-0.06519954,-0.04821934,0.4215853,231,33,0,190,0, t,2
10/6/2020, 12:21:18 ,0.03924072,0.01692871,-2.274727,0.06816252,0.1936563,-0.02239977,0.4215853,231,33,0,190,0, t,2
10/6/2020, 12:21:18 ,0.03924072,0.01692871,-2.274727,0.06816252,0.1936563,-0.02239977,0.3741561,229,33,0,190,0, t,2
10/6/2020, 12:21:18 ,0.003717033,-0.02237747,-2.28494,-0.1923019,-0.1667398,-0.02413381,0.3741561,229,33,0,190,0, t,2
10/6/2020, 12:21:18 ,0.003717033,-0.02237747,-2.28494,-0.1923019,-0.1667398,-0.02413381,0.3780654,229,33,0,190,0, t,2
10/6/2020, 12:21:18 ,0.003717033,-0.02237747,-2.28494,-0.1923019,-0.1667398,-0.02413381,0.3780654,229,33,0,190,0, t,2
10/6/2020, 12:21:19 ,0.06547526,0.02231486,-2.283651,0.3273046,0.08838386,-0.02272044,0.3780654,229,33,0,190,0, t,2
10/6/2020, 12:21:19 ,0.06547526,0.02231486,-2.283651,0.3273046,0.08838386,-0.02272044,0.4181539,229,33,0,190,0, t,2
10/6/2020, 12:21:19 ,0.06547526,0.02231486,-2.283651,0.3273046,0.08838386,-0.02272044,0.4181539,229,33,0,190,0, t,2
10/6/2020, 12:21:20 ,0.06547526,0.02231486,-2.283651,0.3273046,0.08838386,-0.02272044,0.4181539,229,33,0,190,0, t,2
10/6/2020, 12:21:20 ,0.05389751,-0.02521603,-2.308797,0.1635506,-0.284699,-0.05746361,0.4181539,229,33,0,190,0, t,2
10/6/2020, 12:21:20 ,0.05389751,-0.02521603,-2.308797,0.1635506,-0.284699,-0.05746361,0.3932931,227,33,0,190,0, t,2
10/6/2020, 12:21:20 ,0.000275448,0.0201464,-2.29288,-0.104478,0.09307671,0.04966728,0.3932931,227,33,0,190,0, t,2
10/6/2020, 12:21:20 ,0.000275448,0.0201464,-2.29288,-0.104478,0.09307671,0.04966728,0.3898814,228,33,0,190,0, t,2
10/6/2020, 12:21:20 ,0.000275448,0.0201464,-2.29288,-0.104478,0.09307671,0.04966728,0.3898814,228,33,0,190,0, t,2
10/6/2020, 12:21:21 ,0.000275448,0.0201464,-2.29288,-0.104478,0.09307671,0.04966728,0.3885091,228,33,0,190,0, t,2
10/6/2020, 12:21:21 ,0.000275448,0.0201464,-2.29288,-0.104478,0.09307671,0.04966728,0.3885091,228,33,0,190,0, t,2
10/6/2020, 12:21:21 ,-0.003687643,-0.003392268,-2.285524,-0.1396614,0.05517346,0.02761563,0.3885091,228,33,0,190,0, t,2
10/6/2020, 12:21:21 ,-0.003687643,-0.003392268,-2.285524,-0.1396614,0.05517346,0.02761563,0.4058844,229,33,0,190,0, t,2
10/6/2020, 12:21:22 ,-0.003687643,-0.003392268,-2.285524,-0.1396614,0.05517346,0.02761563,0.4058844,229,33,0,190,0, t,2
10/6/2020, 12:21:23 ,0.02423025,-0.01968227,-2.280212,0.1160498,-0.03888734,0.000225357,0.4058844,229,33,0,190,0, t,2
10/6/2020, 12:21:23 ,0.02423025,-0.01968227,-2.280212,0.1160498,-0.03888734,0.000225357,0.5072945,229,33,0,190,0, t,2
10/6/2020, 12:21:23 ,0.02423025,-0.01968227,-2.280212,0.1160498,-0.03888734,0.000225357,0.5072945,229,33,0,190,0, t,2
10/6/2020, 12:21:23 ,0.03031187,-0.005628899,-2.280799,-0.07992497,-0.03532629,0.008515136,0.5072945,229,33,0,190,0, t,2
10/6/2020, 12:21:23 ,0.03031187,-0.005628899,-2.280799,-0.07992497,-0.03532629,0.008515136,0.542902,229,33,0,190,0, t,2
10/6/2020, 12:21:23 ,0.03031187,-0.005628899,-2.280799,-0.07992497,-0.03532629,0.008515136,0.542902,229,33,0,190,0, t,2
10/6/2020, 12:21:24 ,0.03700982,0.01014326,-2.282586,0.1881336,0.01354959,-0.0202532,0.542902,229,33,0,190,0, t,2
10/6/2020, 12:21:24 ,0.03700982,0.01014326,-2.282586,0.1881336,0.01354959,-0.0202532,0.542902,229,33,0,190,0, t,2
10/6/2020, 12:21:25 ,0.03700982,0.01014326,-2.282586,0.1881336,0.01354959,-0.0202532,0.542902,229,33,0,190,0, t,2
10/6/2020, 12:21:26 ,0.02130708,-0.00292455,-2.30916,-0.008427671,-0.03726757,-0.03639864,0.542902,229,33,0,190,0, t,2
10/6/2020, 12:21:26 ,0.02130708,-0.00292455,-2.30916,-0.008427671,-0.03726757,-0.03639864,0.6270668,227,33,0,190,0, t,2
10/6/2020, 12:21:26 ,0.02130708,-0.00292455,-2.30916,-0.008427671,-0.03726757,-0.03639864,0.6270668,227,33,0,190,0, t,2
10/6/2020, 12:21:27 ,0.02130708,-0.00292455,-2.30916,-0.008427671,-0.03726757,-0.03639864,0.6270668,227,33,0,190,0, t,2
10/6/2020, 12:21:27 ,0.00361496,-0.01667456,-2.356493,-0.1542292,0.1045298,-0.00552363,0.6270668,227,33,0,190,0, t,2
10/6/2020, 12:21:27 ,0.00361496,-0.01667456,-2.356493,-0.1542292,0.1045298,-0.00552363,0.57775,224,33,0,190,0, t,2
10/6/2020, 12:21:27 ,0.05905752,-0.006135579,-2.379867,0.06975658,-0.1045132,-0.06200693,0.57775,224,33,0,190,0, t,2
10/6/2020, 12:21:27 ,0.05905752,-0.006135579,-2.379867,0.06975658,-0.1045132,-0.06200693,0.609122,223,33,0,190,0, t,2
10/6/2020, 12:21:28 ,0.05905752,-0.006135579,-2.379867,0.06975658,-0.1045132,-0.06200693,0.609122,223,33,0,190,0, t,2
10/6/2020, 12:21:28 ,0.003596816,-0.00889194,-2.389174,-0.1811588,0.1043347,0.01418628,0.609122,223,33,0,190,0, t,2
10/6/2020, 12:21:28 ,0.003596816,-0.00889194,-2.389174,-0.1811588,0.1043347,0.01418628,0.5574121,223,33,0,190,0, t,2
10/6/2020, 12:21:28 ,0.003596816,-0.00889194,-2.389174,-0.1811588,0.1043347,0.01418628,0.5574121,223,33,0,190,0, t,2
10/6/2020, 12:21:29 ,0.03780392,-0.01465646,-2.406867,0.1630262,-0.1319241,-0.08292893,0.5574121,223,33,0,190,0, t,2
10/6/2020, 12:21:29 ,0.03780392,-0.01465646,-2.406867,0.1630262,-0.1319241,-0.08292893,0.6049224,222,33,0,190,0, t,2
10/6/2020, 12:21:30 ,0.01490293,-0.01542372,-2.419457,0.05849286,0.02590215,-0.04049808,0.6049224,222,33,0,190,0, t,2
10/6/2020, 12:21:30 ,0.01490293,-0.01542372,-2.419457,0.05849286,0.02590215,-0.04049808,0.5820502,221,33,0,190,0, t,2
10/6/2020, 12:21:30 ,0.01490293,-0.01542372,-2.419457,0.05849286,0.02590215,-0.04049808,0.5820502,221,33,0,190,0, t,2
10/6/2020, 12:21:31 ,0.05313891,-0.005166728,-2.432595,0.1153864,-0.03083681,-0.04365771,0.5820502,221,33,0,190,0, t,2
10/6/2020, 12:21:31 ,0.05313891,-0.005166728,-2.432595,0.1153864,-0.03083681,-0.04365771,0.5870788,220,33,0,190,0, t,2
10/6/2020, 12:21:31 ,-0.01457603,-0.000973743,-2.438514,-0.2244864,0.04303605,0.01157166,0.5870788,220,33,0,190,0, t,2
10/6/2020, 12:21:31 ,-0.01457603,-0.000973743,-2.438514,-0.2244864,0.04303605,0.01157166,0.5358245,220,33,0,190,0, t,2
10/6/2020, 12:21:31 ,-0.01457603,-0.000973743,-2.438514,-0.2244864,0.04303605,0.01157166,0.5358245,220,33,0,190,0, t,2
10/6/2020, 12:21:32 ,0.03624959,0.000502583,-2.48354,0.16608,-0.1209605,-0.04507102,0.5358245,220,33,0,190,0, t,2
10/6/2020, 12:21:32 ,0.03624959,0.000502583,-2.48354,0.16608,-0.1209605,-0.04507102,0.534577,217,33,0,190,0, t,2
10/6/2020, 12:21:33 ,0.03624959,0.000502583,-2.48354,0.16608,-0.1209605,-0.04507102,0.534577,217,33,0,190,0, t,2
10/6/2020, 12:21:33 ,0.01432799,0.02356073,-2.488285,-0.01545028,0.1601846,-0.001742951,0.534577,217,33,0,190,0, t,2
10/6/2020, 12:21:33 ,0.01432799,0.02356073,-2.488285,-0.01545028,0.1601846,-0.001742951,0.4762131,217,33,0,190,0, t,2
10/6/2020, 12:21:34 ,0.01432799,0.02356073,-2.488285,-0.01545028,0.1601846,-0.001742951,0.4762131,217,33,0,190,0, t,2
10/6/2020, 12:21:34 ,0.003042664,-0.03180236,-2.505783,-0.09748958,0.08304695,-0.008440382,0.4762131,217,33,0,190,0, t,2
10/6/2020, 12:21:34 ,0.003042664,-0.03180236,-2.505783,-0.09748958,0.08304695,-0.008440382,0.475764,216,33,0,190,0, t,2
10/6/2020, 12:21:34 ,0.0385753,-0.01981933,-2.50925,-0.04801528,-0.1878166,-0.02410057,0.475764,216,33,0,190,0, t,2
10/6/2020, 12:21:34 ,0.0385753,-0.01981933,-2.50925,-0.04801528,-0.1878166,-0.02410057,0.4715661,216,33,0,190,0, t,2
10/6/2020, 12:21:34 ,0.0385753,-0.01981933,-2.50925,-0.04801528,-0.1878166,-0.02410057,0.4715661,216,33,0,190,0, t,2
10/6/2020, 12:21:35 ,0.005466107,0.000432055,-2.509403,-0.04638945,0.03200506,0.04692331,0.4715661,216,33,0,190,0, t,2
10/6/2020, 12:21:35 ,0.005466107,0.000432055,-2.509403,-0.04638945,0.03200506,0.04692331,0.4558769,216,33,0,190,0, t,2
10/6/2020, 12:21:35 ,0.005466107,0.000432055,-2.509403,-0.04638945,0.03200506,0.04692331,0.4558769,216,33,0,190,0, t,2
10/6/2020, 12:21:36 ,0.05194577,-0.02185407,-2.506115,-0.01995638,-0.01929877,-0.01863021,0.4558769,216,33,0,190,0, t,2
10/6/2020, 12:21:36 ,0.05194577,-0.02185407,-2.506115,-0.01995638,-0.01929877,-0.01863021,0.4623886,216,33,0,190,0, t,2
10/6/2020, 12:21:36 ,0.02879225,-0.009745035,-2.48722,0.2407873,-0.04359914,-0.02489287,0.4623886,216,33,0,190,0, t,2
10/6/2020, 12:21:36 ,0.02879225,-0.009745035,-2.48722,0.2407873,-0.04359914,-0.02489287,0.4729876,217,33,0,190,0, t,2
10/6/2020, 12:21:36 ,0.02879225,-0.009745035,-2.48722,0.2407873,-0.04359914,-0.02489287,0.4729876,217,33,0,190,0, t,2
10/6/2020, 12:21:37 ,0.006883062,-0.01627926,-2.477094,-0.1623809,-0.02461471,0.02672105,0.4729876,217,33,0,190,0, t,2
10/6/2020, 12:21:37 ,0.006883062,-0.01627926,-2.477094,-0.1623809,-0.02461471,0.02672105,0.4931614,218,33,0,190,0, t,2
10/6/2020, 12:21:37 ,0.006883062,-0.01627926,-2.477094,-0.1623809,-0.02461471,0.02672105,0.4931614,218,33,0,190,0, t,2
10/6/2020, 12:21:37 ,0.06233759,-0.008274954,-2.483906,0.06353503,-0.1322865,0.001605567,0.4931614,218,33,0,190,0, t,2
10/6/2020, 12:21:37 ,0.06233759,-0.008274954,-2.483906,0.06353503,-0.1322865,0.001605567,0.5153076,217,33,0,190,0, t,2
10/6/2020, 12:21:38 ,0.06233759,-0.008274954,-2.483906,0.06353503,-0.1322865,0.001605567,0.5153076,217,33,0,190,0, t,2
10/6/2020, 12:21:38 ,0.03326194,-0.01767401,-2.474007,0.1591926,-0.1656417,-0.03441153,0.5153076,217,33,0,190,0, t,2
10/6/2020, 12:21:38 ,0.03326194,-0.01767401,-2.474007,0.1591926,-0.1656417,-0.03441153,0.528351,218,33,0,190,0, t,2
10/6/2020, 12:21:38 ,0.011088,0.001161654,-2.466381,-0.07924659,-0.08713619,0.00422752,0.528351,218,33,0,190,0, t,2
10/6/2020, 12:21:38 ,0.011088,0.001161654,-2.466381,-0.07924659,-0.08713619,0.00422752,0.5397773,218,33,0,190,0, t,2
10/6/2020, 12:21:38 ,0.011088,0.001161654,-2.466381,-0.07924659,-0.08713619,0.00422752,0.5397773,218,33,0,190,0, t,2
10/6/2020, 12:21:39 ,0.05220971,-0.009583618,-2.469299,0.1092896,-0.07156065,-0.007288281,0.5397773,218,33,0,190,0, t,2
10/6/2020, 12:21:39 ,0.05220971,-0.009583618,-2.469299,0.1092896,-0.07156065,-0.007288281,0.5664367,218,33,0,190,0, t,2
10/6/2020, 12:21:39 ,0.05220971,-0.009583618,-2.469299,0.1092896,-0.07156065,-0.007288281,0.5664367,218,33,0,190,0, t,2
10/6/2020, 12:21:40 ,0.02576411,0.000604853,-2.459083,0.198296,-0.03282176,-0.03328797,0.5664367,218,33,0,190,0, t,2
10/6/2020, 12:21:40 ,0.02576411,0.000604853,-2.459083,0.198296,-0.03282176,-0.03328797,0.5600508,219,33,0,190,0, t,2
10/6/2020, 12:21:40 ,0.02576411,0.000604853,-2.459083,0.198296,-0.03282176,-0.03328797,0.5600508,219,33,0,190,0, t,2
10/6/2020, 12:21:41 ,0.02069799,0.0193763,-2.4414,0.112074,0.1033691,0.02001571,0.5600508,219,33,0,190,0, t,2
10/6/2020, 12:21:41 ,0.02069799,0.0193763,-2.4414,0.112074,0.1033691,0.02001571,0.5415323,220,33,0,190,0, t,2
10/6/2020, 12:21:41 ,0.02069799,0.0193763,-2.4414,0.112074,0.1033691,0.02001571,0.5415323,220,33,0,190,0, t,2
10/6/2020, 12:21:42 ,0.02069799,0.0193763,-2.4414,0.112074,0.1033691,0.02001571,0.5415323,220,33,0,190,0, t,2
10/6/2020, 12:21:43 ,0.004850145,-0.0171488,-2.367838,-0.04007753,-0.03465024,0.01065225,0.5415323,220,33,0,190,0, t,2
10/6/2020, 12:21:43 ,0.004850145,-0.0171488,-2.367838,-0.04007753,-0.03465024,0.01065225,0.4923255,224,33,0,190,0, t,2
10/6/2020, 12:21:43 ,0.007995825,0.003475875,-2.342372,-0.1274313,0.01292843,0.05581881,0.4923255,224,33,0,190,0, t,2
10/6/2020, 12:21:43 ,0.007995825,0.003475875,-2.342372,-0.1274313,0.01292843,0.05581881,0.4959696,225,33,0,190,0, t,2
10/6/2020, 12:21:43 ,0.007995825,0.003475875,-2.342372,-0.1274313,0.01292843,0.05581881,0.4959696,225,33,0,190,0, t,2
10/6/2020, 12:21:44 ,0.03096545,-0.01090783,-2.335438,0.02778104,0.09523778,0.04098428,0.4959696,225,33,0,190,0, t,2
10/6/2020, 12:21:44 ,0.03096545,-0.01090783,-2.335438,0.02778104,0.09523778,0.04098428,0.5002521,226,33,0,190,0, t,2
10/6/2020, 12:21:44 ,0.03096545,-0.01090783,-2.335438,0.02778104,0.09523778,0.04098428,0.5002521,226,33,0,190,0, t,2
10/6/2020, 12:21:44 ,0.01955561,-0.01761295,-2.32136,-0.08143721,-0.09441718,-0.01525153,0.5002521,226,33,0,190,0, t,2
10/6/2020, 12:21:44 ,0.01955561,-0.01761295,-2.32136,-0.08143721,-0.09441718,-0.01525153,0.4796433,227,33,0,190,0, t,2
10/6/2020, 12:21:45 ,0.01955561,-0.01761295,-2.32136,-0.08143721,-0.09441718,-0.01525153,0.4796433,227,33,0,190,0, t,2
10/6/2020, 12:21:45 ,0.01408361,0.01590247,-2.294994,0.1390679,0.04206742,0.03410256,0.4796433,227,33,0,190,0, t,2
10/6/2020, 12:21:45 ,0.01408361,0.01590247,-2.294994,0.1390679,0.04206742,0.03410256,0.4597076,228,33,0,190,0, t,2
10/6/2020, 12:21:45 ,0.01389733,-0.01791993,-2.277533,-0.1741471,0.132216,0.07373424,0.4597076,228,33,0,190,0, t,2
10/6/2020, 12:21:45 ,0.01389733,-0.01791993,-2.277533,-0.1741471,0.132216,0.07373424,0.4828602,229,33,0,190,0, t,2
10/6/2020, 12:21:45 ,0.01389733,-0.01791993,-2.277533,-0.1741471,0.132216,0.07373424,0.4828602,229,33,0,190,0, t,2
10/6/2020, 12:21:46 ,0.02360754,0.00041825,-2.263427,0.009313161,-0.1020185,0.007543387,0.4828602,229,33,0,190,0, t,2
10/6/2020, 12:21:46 ,0.02360754,0.00041825,-2.263427,0.009313161,-0.1020185,0.007543387,0.4691617,230,33,0,190,0, t,2
10/6/2020, 12:21:46 ,0.02360754,0.00041825,-2.263427,0.009313161,-0.1020185,0.007543387,0.4691617,230,33,0,190,0, t,2
10/6/2020, 12:21:47 ,0.02907086,-0.009230576,-2.257866,0.02705315,0.119468,0.03613156,0.4691617,230,33,0,190,0, t,2
10/6/2020, 12:21:47 ,0.02907086,-0.009230576,-2.257866,0.02705315,0.119468,0.03613156,0.493151,230,33,0,190,0, t,2
10/6/2020, 12:21:47 ,0.0295003,-0.02181633,-2.258832,-0.03540196,-0.155935,-0.03248661,0.493151,230,33,0,190,0, t,2
10/6/2020, 12:21:47 ,0.0295003,-0.02181633,-2.258832,-0.03540196,-0.155935,-0.03248661,0.4942749,230,33,0,190,0, t,2
10/6/2020, 12:21:47 ,0.0295003,-0.02181633,-2.258832,-0.03540196,-0.155935,-0.03248661,0.4942749,230,33,0,190,0, t,2
10/6/2020, 12:21:48 ,0.00850359,0.01242131,-2.271273,0.1032036,0.04444209,0.003548941,0.4942749,230,33,0,190,0, t,2
10/6/2020, 12:21:48 ,0.00850359,0.01242131,-2.271273,0.1032036,0.04444209,0.003548941,0.4871363,229,33,0,190,0, t,2
10/6/2020, 12:21:48 ,0.00850359,0.01242131,-2.271273,0.1032036,0.04444209,0.003548941,0.4871363,229,33,0,190,0, t,2
10/6/2020, 12:21:49 ,0.04093517,-0.02036177,-2.282672,-0.0668347,0.00364093,-0.0273209,0.4871363,229,33,0,190,0, t,2
10/6/2020, 12:21:49 ,0.04093517,-0.02036177,-2.282672,-0.0668347,0.00364093,-0.0273209,0.4650719,229,33,0,190,0, t,2
10/6/2020, 12:21:49 ,0.008538321,-0.01670312,-2.30021,0.03961878,-0.1286469,-0.04656017,0.4650719,229,33,0,190,0, t,2
10/6/2020, 12:21:49 ,0.008538321,-0.01670312,-2.30021,0.03961878,-0.1286469,-0.04656017,0.512763,228,33,0,190,0, t,2
10/6/2020, 12:21:49 ,0.008538321,-0.01670312,-2.30021,0.03961878,-0.1286469,-0.04656017,0.512763,228,33,0,190,0, t,2
10/6/2020, 12:21:49 ,0.04241534,-0.005150624,-2.318069,0.003831684,-0.1810401,-0.0523629,0.512763,228,33,0,190,0, t,2
10/6/2020, 12:21:49 ,0.04241534,-0.005150624,-2.318069,0.003831684,-0.1810401,-0.0523629,0.4911401,227,33,0,190,0, t,2
10/6/2020, 12:21:50 ,0.04241534,-0.005150624,-2.318069,0.003831684,-0.1810401,-0.0523629,0.4911401,227,33,0,190,0, t,2
10/6/2020, 12:21:50 ,0.00966263,0.02348677,-2.320025,0.1362662,0.0376659,0.01696638,0.4911401,227,33,0,190,0, t,2
10/6/2020, 12:21:50 ,0.00966263,0.02348677,-2.320025,0.1362662,0.0376659,0.01696638,0.5064185,227,33,0,190,0, t,2
10/6/2020, 12:21:50 ,0.00966263,0.02348677,-2.320025,0.1362662,0.0376659,0.01696638,0.5064185,227,33,0,190,0, t,2
10/6/2020, 12:21:51 ,-0.002691057,-0.01418296,-2.331876,-0.2403617,-0.05320217,0.03321033,0.5064185,227,33,0,190,0, t,2
10/6/2020, 12:21:51 ,-0.002691057,-0.01418296,-2.331876,-0.2403617,-0.05320217,0.03321033,0.4867823,226,33,0,190,0, t,2
10/6/2020, 12:21:51 ,-0.002691057,-0.01418296,-2.331876,-0.2403617,-0.05320217,0.03321033,0.4867823,226,33,0,190,0, t,2
10/6/2020, 12:21:52 ,0.003808646,0.007312447,-2.356435,0.04088415,0.04162205,-0.02903694,0.4867823,226,33,0,190,0, t,2
10/6/2020, 12:21:52 ,0.003808646,0.007312447,-2.356435,0.04088415,0.04162205,-0.02903694,0.4832437,224,33,0,190,0, t,2
10/6/2020, 12:21:52 ,0.003808646,0.007312447,-2.356435,0.04088415,0.04162205,-0.02903694,0.4832437,224,33,0,190,0, t,2
10/6/2020, 12:21:53 ,0.02531293,-0.02651908,-2.382705,-0.1004042,-0.02772563,0.000982171,0.4832437,224,33,0,190,0, t,2
10/6/2020, 12:21:53 ,0.02531293,-0.02651908,-2.382705,-0.1004042,-0.02772563,0.000982171,0.46691,223,33,0,190,0, t,2
10/6/2020, 12:21:53 ,0.03864445,-0.03184688,-2.397362,0.05996476,-0.2125113,-0.05106359,0.46691,223,33,0,190,0, t,2
10/6/2020, 12:21:53 ,0.03864445,-0.03184688,-2.397362,0.05996476,-0.2125113,-0.05106359,0.4905436,222,33,0,190,0, t,2
10/6/2020, 12:21:53 ,0.03864445,-0.03184688,-2.397362,0.05996476,-0.2125113,-0.05106359,0.4905436,222,33,0,190,0, t,2
10/6/2020, 12:21:53 ,0.004694497,0.01757503,-2.398242,0.02299003,-0.09595415,-0.001922918,0.4905436,222,33,0,190,0, t,2
10/6/2020, 12:21:53 ,0.004694497,0.01757503,-2.398242,0.02299003,-0.09595415,-0.001922918,0.4648198,222,33,0,190,0, t,2
10/6/2020, 12:21:54 ,0.04073631,-0.006503042,-2.415674,0.02050743,0.1140973,0.003607556,0.4648198,222,33,0,190,0, t,2
10/6/2020, 12:21:54 ,0.04073631,-0.006503042,-2.415674,0.02050743,0.1140973,0.003607556,0.4728233,221,33,0,190,0, t,2
10/6/2020, 12:21:55 ,0.04073631,-0.006503042,-2.415674,0.02050743,0.1140973,0.003607556,0.4728233,221,33,0,190,0, t,2
10/6/2020, 12:21:55 ,-0.001275681,-0.0169736,-2.414913,-0.2290248,-0.02756679,0.01446045,0.4728233,221,33,0,190,0, t,2
10/6/2020, 12:21:55 ,-0.001275681,-0.0169736,-2.414913,-0.2290248,-0.02756679,0.01446045,0.4841729,221,33,0,190,0, t,2
10/6/2020, 12:21:55 ,0.0416771,0.02135153,-2.421307,0.3290416,0.003801237,-0.0514449,0.4841729,221,33,0,190,0, t,2
10/6/2020, 12:21:55 ,0.0416771,0.02135153,-2.421307,0.3290416,0.003801237,-0.0514449,0.5339468,221,33,0,190,0, t,2
10/6/2020, 12:21:55 ,0.0416771,0.02135153,-2.421307,0.3290416,0.003801237,-0.0514449,0.5339468,221,33,0,190,0, t,2
10/6/2020, 12:21:56 ,-0.002045296,-0.01555051,-2.419739,-0.3298433,0.09809927,0.06840785,0.5339468,221,33,0,190,0, t,2
10/6/2020, 12:21:56 ,-0.002045296,-0.01555051,-2.419739,-0.3298433,0.09809927,0.06840785,0.4782059,221,33,0,190,0, t,2
10/6/2020, 12:21:56 ,-0.002045296,-0.01555051,-2.419739,-0.3298433,0.09809927,0.06840785,0.5360194,221,33,0,190,0, t,2
10/6/2020, 12:21:56 ,-0.002045296,-0.01555051,-2.419739,-0.3298433,0.09809927,0.06840785,0.5360194,221,33,0,190,0, t,2
10/6/2020, 12:21:57 ,-0.002045296,-0.01555051,-2.419739,-0.3298433,0.09809927,0.06840785,0.5360194,221,33,0,190,0, t,2
10/6/2020, 12:21:58 ,0.001512473,0.01263272,-2.428825,0.1667645,0.04986922,-0.03508642,0.5360194,221,33,0,190,0, t,2
10/6/2020, 12:21:58 ,0.001512473,0.01263272,-2.428825,0.1667645,0.04986922,-0.03508642,0.5269287,220,33,0,190,0, t,2
10/6/2020, 12:21:58 ,0.04886543,-0.01872476,-2.433534,-0.09929427,0.03657563,0.02297871,0.5269287,220,33,0,190,0, t,2
10/6/2020, 12:21:58 ,0.04886543,-0.01872476,-2.433534,-0.09929427,0.03657563,0.02297871,0.5140586,220,33,0,190,0, t,2
10/6/2020, 12:21:58 ,0.04886543,-0.01872476,-2.433534,-0.09929427,0.03657563,0.02297871,0.5140586,220,33,0,190,0, t,2
10/6/2020, 12:21:59 ,0.04679408,0.008925416,-2.443101,0.1233058,-0.008862736,-0.02139882,0.5140586,220,33,0,190,0, t,2
10/6/2020, 12:21:59 ,0.04679408,0.008925416,-2.443101,0.1233058,-0.008862736,-0.02139882,0.5244284,220,33,0,190,0, t,2
10/6/2020, 12:21:59 ,-0.01454403,0.004400574,-2.432148,-0.1291843,0.1513836,0.05675822,0.5244284,220,33,0,190,0, t,2
10/6/2020, 12:21:59 ,-0.01454403,0.004400574,-2.432148,-0.1291843,0.1513836,0.05675822,0.5076396,220,33,0,190,0, t,2
10/6/2020, 12:21:59 ,-0.01454403,0.004400574,-2.432148,-0.1291843,0.1513836,0.05675822,0.5076396,220,33,0,190,0, t,2
10/6/2020, 12:22:00 ,0.06609443,-0.01272147,-2.435251,0.01532826,0.04790893,-0.0161415,0.5076396,220,33,0,190,0, t,2
10/6/2020, 12:22:00 ,0.06609443,-0.01272147,-2.435251,0.01532826,0.04790893,-0.0161415,0.5446205,220,33,0,190,0, t,2
10/6/2020, 12:22:00 ,0.06609443,-0.01272147,-2.435251,0.01532826,0.04790893,-0.0161415,0.5446205,220,33,0,190,0, t,2
10/6/2020, 12:22:00 ,-0.01016553,0.001710121,-2.419005,0.0604598,-0.0289485,0.01698508,0.5446205,220,33,0,190,0, t,2
10/6/2020, 12:22:00 ,-0.01016553,0.001710121,-2.419005,0.0604598,-0.0289485,0.01698508,0.5425655,221,33,0,190,0, t,2
10/6/2020, 12:22:01 ,0.03170838,-0.01810126,-2.419013,-0.1007475,0.01161685,0.0376065,0.5425655,221,33,0,190,0, t,2
10/6/2020, 12:22:01 ,0.03170838,-0.01810126,-2.419013,-0.1007475,0.01161685,0.0376065,0.5496568,221,33,0,190,0, t,2
10/6/2020, 12:22:01 ,0.03170838,-0.01810126,-2.419013,-0.1007475,0.01161685,0.0376065,0.5496568,221,33,0,190,0, t,2
10/6/2020, 12:22:01 ,0.03170838,-0.01810126,-2.419013,-0.1007475,0.01161685,0.0376065,0.5496568,221,33,0,190,0, t,2
10/6/2020, 12:22:03 ,0.03170838,-0.01810126,-2.419013,-0.1007475,0.01161685,0.0376065,0.5634596,221,33,0,190,0, t,2
10/6/2020, 12:22:04 ,0.000145987,-0.001039028,-2.419928,0.07881591,0.08367466,-0.002678056,0.5634596,221,33,0,190,0, t,2
10/6/2020, 12:22:04 ,0.000145987,-0.001039028,-2.419928,0.07881591,0.08367466,-0.002678056,0.5317867,221,33,0,190,0, t,2
10/6/2020, 12:22:04 ,0.000145987,-0.001039028,-2.419928,0.07881591,0.08367466,-0.002678056,0.5317867,221,33,0,190,0, t,2
10/6/2020, 12:22:05 ,0.01069681,0.000563238,-2.427228,-0.2184676,0.003038675,-0.0032434,0.5317867,221,33,0,190,0, t,2
10/6/2020, 12:22:05 ,0.01069681,0.000563238,-2.427228,-0.2184676,0.003038675,-0.0032434,0.5097872,220,33,0,190,0, t,2
10/6/2020, 12:22:05 ,0.01069681,0.000563238,-2.427228,-0.2184676,0.003038675,-0.0032434,0.5097872,220,33,0,190,0, t,2
10/6/2020, 12:22:06 ,0.05147082,-0.002541438,-2.435506,0.1000909,0.04444008,-0.009502024,0.5097872,220,33,0,190,0, t,2
10/6/2020, 12:22:06 ,-0.004244722,-0.01057987,-2.42971,0.06426478,0.05600489,0.02123767,0.5097872,220,33,0,190,0, t,2
10/6/2020, 12:22:06 ,-0.004244722,-0.01057987,-2.42971,0.06426478,0.05600489,0.02123767,0.5744613,220,33,0,190,0, t,2
10/6/2020, 12:22:06 ,-0.004244722,-0.01057987,-2.42971,0.06426478,0.05600489,0.02123767,0.5744613,220,33,0,190,0, t,2
10/6/2020, 12:22:07 ,-0.004244722,-0.01057987,-2.42971,0.06426478,0.05600489,0.02123767,0.5744613,220,33,0,190,0, t,2
10/6/2020, 12:22:07 ,0.03397637,-0.01493837,-2.426968,0.164373,-0.06413515,-0.01536773,0.5744613,220,33,0,190,0, t,2
10/6/2020, 12:22:08 ,0.03397637,-0.01493837,-2.426968,0.164373,-0.06413515,-0.01536773,0.5579415,220,33,0,190,0, t,2
10/6/2020, 12:22:08 ,0.002990944,-0.005233925,-2.422143,-0.06121071,0.04174587,0.007936312,0.5579415,220,33,0,190,0, t,2
10/6/2020, 12:22:08 ,0.002990944,-0.005233925,-2.422143,-0.06121071,0.04174587,0.007936312,0.5400038,221,33,0,190,0, t,2
10/6/2020, 12:22:08 ,0.002990944,-0.005233925,-2.422143,-0.06121071,0.04174587,0.007936312,0.5400038,221,33,0,190,0, t,2
10/6/2020, 12:22:08 ,0.03343045,-0.01453408,-2.426906,-0.01298684,0.02773153,0.01340088,0.5400038,221,33,0,190,0, t,2
10/6/2020, 12:22:09 ,0.03343045,-0.01453408,-2.426906,-0.01298684,0.02773153,0.01340088,0.5274921,220,33,0,190,0, t,2
10/6/2020, 12:22:09 ,0.03343045,-0.01453408,-2.426906,-0.01298684,0.02773153,0.01340088,0.5274921,220,33,0,190,0, t,2
10/6/2020, 12:22:10 ,0.03343045,-0.01453408,-2.426906,-0.01298684,0.02773153,0.01340088,0.5274921,220,33,0,190,0, t,2
10/6/2020, 12:22:10 ,0.02613901,0.008628231,-2.408988,-0.04938678,0.1510053,0.01275542,0.5274921,220,33,0,190,0, t,2
10/6/2020, 12:22:10 ,0.02613901,0.008628231,-2.408988,-0.04938678,0.1510053,0.01275542,0.4542253,221,33,0,190,0, t,2
10/6/2020, 12:22:10 ,0.03608222,-0.0191555,-2.397262,0.1444263,0.07001864,0.03175038,0.4542253,221,33,0,190,0, t,2
10/6/2020, 12:22:10 ,0.03608222,-0.0191555,-2.397262,0.1444263,0.07001864,0.03175038,0.4678248,222,33,0,190,0, t,2
10/6/2020, 12:22:10 ,0.03608222,-0.0191555,-2.397262,0.1444263,0.07001864,0.03175038,0.4678248,222,33,0,190,0, t,2
10/6/2020, 12:22:11 ,0.006154358,-0.003944103,-2.384003,-0.1954208,-0.08292858,0.04967282,0.4678248,222,33,0,190,0, t,2
10/6/2020, 12:22:11 ,0.006154358,-0.003944103,-2.384003,-0.1954208,-0.08292858,0.04967282,0.4451279,223,33,0,190,0, t,2
10/6/2020, 12:22:11 ,0.006154358,-0.003944103,-2.384003,-0.1954208,-0.08292858,0.04967282,0.4451279,223,33,0,190,0, t,2
10/6/2020, 12:22:12 ,0.04067005,0.01120478,-2.380391,0.0883434,0.1382633,0.02750551,0.4451279,223,33,0,190,0, t,2
10/6/2020, 12:22:12 ,0.04067005,0.01120478,-2.380391,0.0883434,0.1382633,0.02750551,0.4784245,223,33,0,190,0, t,2
10/6/2020, 12:22:12 ,0.04067005,0.01120478,-2.380391,0.0883434,0.1382633,0.02750551,0.4784245,223,33,0,190,0, t,2
10/6/2020, 12:22:12 ,0.003680652,-0.02785869,-2.365343,-0.05507133,-0.02412655,0.02323312,0.4784245,223,33,0,190,0, t,2
10/6/2020, 12:22:12 ,0.003680652,-0.02785869,-2.365343,-0.05507133,-0.02412655,0.02323312,0.4758867,224,33,0,190,0, t,2
10/6/2020, 12:22:13 ,0.0525554,0.002554778,-2.353828,0.1159492,-0.007263274,0.02534707,0.4758867,224,33,0,190,0, t,2
10/6/2020, 12:22:13 ,0.0525554,0.002554778,-2.353828,0.1159492,-0.007263274,0.02534707,0.492,225,33,0,190,0, t,2
10/6/2020, 12:22:13 ,0.0525554,0.002554778,-2.353828,0.1159492,-0.007263274,0.02534707,0.492,225,33,0,190,0, t,2
10/6/2020, 12:22:13 ,-0.008645091,-0.006306268,-2.346573,-0.07332045,0.02335522,0.01396172,0.492,225,33,0,190,0, t,2
10/6/2020, 12:22:13 ,-0.008645091,-0.006306268,-2.346573,-0.07332045,0.02335522,0.01396172,0.4913416,225,33,0,190,0, t,2
10/6/2020, 12:22:14 ,-0.008645091,-0.006306268,-2.346573,-0.07332045,0.02335522,0.01396172,0.4913416,225,33,0,190,0, t,2
10/6/2020, 12:22:14 ,0.03809757,0.006181866,-2.344244,0.1357651,0.03532561,0.016186,0.4913416,225,33,0,190,0, t,2
10/6/2020, 12:22:14 ,0.03809757,0.006181866,-2.344244,0.1357651,0.03532561,0.016186,0.4685884,225,33,0,190,0, t,2
10/6/2020, 12:22:14 ,0.01582517,-0.03366379,-2.335415,-0.1530903,-0.1322937,0.01370313,0.4685884,225,33,0,190,0, t,2
10/6/2020, 12:22:14 ,0.01582517,-0.03366379,-2.335415,-0.1530903,-0.1322937,0.01370313,0.4833556,226,33,0,190,0, t,2
10/6/2020, 12:22:14 ,0.01582517,-0.03366379,-2.335415,-0.1530903,-0.1322937,0.01370313,0.4833556,226,33,0,190,0, t,2
10/6/2020, 12:22:15 ,0.01705037,0.01025721,-2.329242,0.03840118,0.07675511,0.03159068,0.4833556,226,33,0,190,0, t,2
10/6/2020, 12:22:15 ,0.01705037,0.01025721,-2.329242,0.03840118,0.07675511,0.03159068,0.5040382,226,33,0,190,0, t,2
10/6/2020, 12:22:15 ,0.01705037,0.01025721,-2.329242,0.03840118,0.07675511,0.03159068,0.5040382,226,33,0,190,0, t,2
10/6/2020, 12:22:16 ,0.03197756,-0.01772833,-2.328188,-0.09440224,-0.1183038,-0.001955328,0.5040382,226,33,0,190,0, t,2
10/6/2020, 12:22:16 ,0.03197756,-0.01772833,-2.328188,-0.09440224,-0.1183038,-0.001955328,0.4680974,226,33,0,190,0, t,2
10/6/2020, 12:22:16 ,0.005950375,0.007850677,-2.306846,0.1220268,0.08265901,0.05091858,0.4680974,226,33,0,190,0, t,2
10/6/2020, 12:22:16 ,0.005950375,0.007850677,-2.306846,0.1220268,0.08265901,0.05091858,0.4864731,227,33,0,190,0, t,2
10/6/2020, 12:22:16 ,0.005950375,0.007850677,-2.306846,0.1220268,0.08265901,0.05091858,0.4864731,227,33,0,190,0, t,2
10/6/2020, 12:22:16 ,0.04693794,-0.01469853,-2.30339,-0.04141273,0.01835717,0.007218869,0.4864731,227,33,0,190,0, t,2
10/6/2020, 12:22:16 ,0.04693794,-0.01469853,-2.30339,-0.04141273,0.01835717,0.007218869,0.4796806,228,33,0,190,0, t,2
10/6/2020, 12:22:17 ,-0.003080796,0.006153725,-2.302014,-0.0759879,0.03793774,0.01090868,0.4796806,228,33,0,190,0, t,2
10/6/2020, 12:22:17 ,-0.003080796,0.006153725,-2.302014,-0.0759879,0.03793774,0.01090868,0.4830252,228,33,0,190,0, t,2
10/6/2020, 12:22:17 ,-0.003080796,0.006153725,-2.302014,-0.0759879,0.03793774,0.01090868,0.4830252,228,33,0,190,0, t,2
10/6/2020, 12:22:17 ,0.03429123,-0.004341464,-2.303598,0.1172047,-0.04762952,-0.004020126,0.4830252,228,33,0,190,0, t,2
10/6/2020, 12:22:17 ,0.03429123,-0.004341464,-2.303598,0.1172047,-0.04762952,-0.004020126,0.4703559,228,33,0,190,0, t,2
10/6/2020, 12:22:18 ,0.03429123,-0.004341464,-2.303598,0.1172047,-0.04762952,-0.004020126,0.4703559,228,33,0,190,0, t,2
10/6/2020, 12:22:18 ,0.02906644,-0.01659818,-2.30504,-0.03064262,0.02879565,-0.01596574,0.4703559,228,33,0,190,0, t,2
10/6/2020, 12:22:18 ,0.02906644,-0.01659818,-2.30504,-0.03064262,0.02879565,-0.01596574,0.5056233,227,33,0,190,0, t,2
10/6/2020, 12:22:18 ,0.01680494,0.004633788,-2.303236,0.0189087,-0.03282089,-0.02651641,0.5056233,227,33,0,190,0, t,2
10/6/2020, 12:22:18 ,0.01680494,0.004633788,-2.303236,0.0189087,-0.03282089,-0.02651641,0.5318483,228,33,0,190,0, t,2
10/6/2020, 12:22:18 ,0.01680494,0.004633788,-2.303236,0.0189087,-0.03282089,-0.02651641,0.5318483,228,33,0,190,0, t,2
10/6/2020, 12:22:19 ,0.01899869,-0.001015287,-2.304745,-0.02038529,0.120543,0.02611643,0.5318483,228,33,0,190,0, t,2
10/6/2020, 12:22:19 ,0.01899869,-0.001015287,-2.304745,-0.02038529,0.120543,0.02611643,0.5235823,227,33,0,190,0, t,2
10/6/2020, 12:22:19 ,0.01899869,-0.001015287,-2.304745,-0.02038529,0.120543,0.02611643,0.5235823,227,33,0,190,0, t,2
10/6/2020, 12:22:20 ,0.02656722,-0.02045159,-2.314967,-0.08470225,-0.1069978,-0.01860216,0.5235823,227,33,0,190,0, t,2
10/6/2020, 12:22:20 ,0.02656722,-0.02045159,-2.314967,-0.08470225,-0.1069978,-0.01860216,0.5055232,227,33,0,190,0, t,2
10/6/2020, 12:22:20 ,0.02465363,0.001247998,-2.319216,0.1867008,-0.04043917,-0.03430044,0.5055232,227,33,0,190,0, t,2
10/6/2020, 12:22:20 ,0.02465363,0.001247998,-2.319216,0.1867008,-0.04043917,-0.03430044,0.555544,227,33,0,190,0, t,2
10/6/2020, 12:22:20 ,0.02465363,0.001247998,-2.319216,0.1867008,-0.04043917,-0.03430044,0.555544,227,33,0,190,0, t,2
10/6/2020, 12:22:20 ,0.03411175,-0.00032144,-2.329198,-0.1106918,0.0153491,-0.000468903,0.555544,227,33,0,190,0, t,2
10/6/2020, 12:22:20 ,0.03411175,-0.00032144,-2.329198,-0.1106918,0.0153491,-0.000468903,0.5081535,226,33,0,190,0, t,2
10/6/2020, 12:22:21 ,0.03411175,-0.00032144,-2.329198,-0.1106918,0.0153491,-0.000468903,0.5081535,226,33,0,190,0, t,2
10/6/2020, 12:22:21 ,0.01391903,-0.01047003,-2.34601,0.002221675,0.1505055,-0.04002863,0.5081535,226,33,0,190,0, t,2
10/6/2020, 12:22:21 ,0.01391903,-0.01047003,-2.34601,0.002221675,0.1505055,-0.04002863,0.5309557,225,33,0,190,0, t,2
10/6/2020, 12:22:21 ,0.03490788,-0.02409904,-2.366791,0.04056117,-0.1670145,-0.05248477,0.5309557,225,33,0,190,0, t,2
10/6/2020, 12:22:21 ,0.03490788,-0.02409904,-2.366791,0.04056117,-0.1670145,-0.05248477,0.5018346,224,33,0,190,0, t,2
10/6/2020, 12:22:21 ,0.03490788,-0.02409904,-2.366791,0.04056117,-0.1670145,-0.05248477,0.5018346,224,33,0,190,0, t,2
10/6/2020, 12:22:22 ,0.01460054,0.01098567,-2.383843,0.002059008,-0.03375888,-0.02479123,0.5018346,224,33,0,190,0, t,2
10/6/2020, 12:22:22 ,0.01460054,0.01098567,-2.383843,0.002059008,-0.03375888,-0.02479123,0.5215087,223,33,0,190,0, t,2
10/6/2020, 12:22:22 ,0.01460054,0.01098567,-2.383843,0.002059008,-0.03375888,-0.02479123,0.5215087,223,33,0,190,0, t,2
10/6/2020, 12:22:22 ,0.0434487,-0.0145644,-2.412792,-0.06014879,0.002420374,-0.05754209,0.5215087,223,33,0,190,0, t,2
10/6/2020, 12:22:22 ,0.0434487,-0.0145644,-2.412792,-0.06014879,0.002420374,-0.05754209,0.5424201,221,33,0,190,0, t,2
10/6/2020, 12:22:23 ,1.40E-06,0.000446886,-2.44584,-0.01301195,-0.06924559,-0.06791192,0.5424201,221,33,0,190,0, t,2
10/6/2020, 12:22:23 ,1.40E-06,0.000446886,-2.44584,-0.01301195,-0.06924559,-0.06791192,0.5192652,219,33,0,190,0, t,2
10/6/2020, 12:22:23 ,1.40E-06,0.000446886,-2.44584,-0.01301195,-0.06924559,-0.06791192,0.5192652,219,33,0,190,0, t,2
10/6/2020, 12:22:23 ,0.04487974,-0.007061634,-2.475949,0.02426512,-0.003143021,-0.05675904,0.5192652,219,33,0,190,0, t,2
10/6/2020, 12:22:23 ,0.04487974,-0.007061634,-2.475949,0.02426512,-0.003143021,-0.05675904,0.5213599,218,33,0,190,0, t,2
10/6/2020, 12:22:24 ,0.04487974,-0.007061634,-2.475949,0.02426512,-0.003143021,-0.05675904,0.5213599,218,33,0,190,0, t,2
10/6/2020, 12:22:24 ,0.01118387,-0.01070222,-2.489251,0.01930737,-0.003850695,-0.03183732,0.5213599,218,33,0,190,0, t,2
10/6/2020, 12:22:24 ,0.01118387,-0.01070222,-2.489251,0.01930737,-0.003850695,-0.03183732,0.5227233,217,33,0,190,0, t,2
10/6/2020, 12:22:24 ,0.01118387,-0.01070222,-2.489251,0.01930737,-0.003850695,-0.03183732,0.5227233,217,33,0,190,0, t,2
10/6/2020, 12:22:25 ,0.01393022,-0.0127673,-2.50527,-0.1407909,-0.03248066,0.04298509,0.5227233,217,33,0,190,0, t,2
10/6/2020, 12:22:25 ,0.01393022,-0.0127673,-2.50527,-0.1407909,-0.03248066,0.04298509,0.4926006,216,33,0,190,0, t,2
10/6/2020, 12:22:25 ,0.03647021,-0.005042389,-2.506404,0.2305541,-0.08357222,-0.05597333,0.4926006,216,33,0,190,0, t,2
10/6/2020, 12:22:25 ,0.03647021,-0.005042389,-2.506404,0.2305541,-0.08357222,-0.05597333,0.5351166,216,33,0,190,0, t,2
10/6/2020, 12:22:25 ,0.03647021,-0.005042389,-2.506404,0.2305541,-0.08357222,-0.05597333,0.5351166,216,33,0,190,0, t,2
10/6/2020, 12:22:26 ,0.009982387,0.007784009,-2.501163,-0.06557573,0.07569186,0.01855515,0.5351166,216,33,0,190,0, t,2
10/6/2020, 12:22:26 ,0.009982387,0.007784009,-2.501163,-0.06557573,0.07569186,0.01855515,0.5116004,216,33,0,190,0, t,2
10/6/2020, 12:22:26 ,0.009982387,0.007784009,-2.501163,-0.06557573,0.07569186,0.01855515,0.5116004,216,33,0,190,0, t,2
10/6/2020, 12:22:26 ,0.02835717,-0.008656263,-2.509048,-0.0365329,0.04764404,-0.007421316,0.5116004,216,33,0,190,0, t,2
10/6/2020, 12:22:26 ,0.02835717,-0.008656263,-2.509048,-0.0365329,0.04764404,-0.007421316,0.5271491,216,33,0,190,0, t,2
10/6/2020, 12:22:26 ,0.0181919,-0.008105606,-2.507307,-0.08684234,-0.000754945,0.005243818,0.5271491,216,33,0,190,0, t,2
10/6/2020, 12:22:26 ,0.0181919,-0.008105606,-2.507307,-0.08684234,-0.000754945,0.005243818,0.490985,216,33,0,190,0, t,2
10/6/2020, 12:22:27 ,0.0181919,-0.008105606,-2.507307,-0.08684234,-0.000754945,0.005243818,0.490985,216,33,0,190,0, t,2
10/6/2020, 12:22:27 ,0.02023694,-0.01257573,-2.509069,0.1241785,-0.07381069,-0.005403301,0.490985,216,33,0,190,0, t,2
10/6/2020, 12:22:27 ,0.02023694,-0.01257573,-2.509069,0.1241785,-0.07381069,-0.005403301,0.5240473,216,33,0,190,0, t,2
10/6/2020, 12:22:27 ,0.02023694,-0.01257573,-2.509069,0.1241785,-0.07381069,-0.005403301,0.5240473,216,33,0,190,0, t,2
10/6/2020, 12:22:28 ,0.03745158,-0.009214763,-2.511304,-0.1451284,-0.09381386,-0.004736494,0.5240473,216,33,0,190,0, t,2
10/6/2020, 12:22:28 ,0.03745158,-0.009214763,-2.511304,-0.1451284,-0.09381386,-0.004736494,0.520646,216,33,0,190,0, t,2
10/6/2020, 12:22:28 ,0.03745158,-0.009214763,-2.511304,-0.1451284,-0.09381386,-0.004736494,0.520646,216,33,0,190,0, t,2
10/6/2020, 12:22:29 ,0.03647618,-0.03270626,-2.505441,-0.1121025,-0.04191864,0.03854501,0.520646,216,33,0,190,0, t,2
10/6/2020, 12:22:29 ,0.03647618,-0.03270626,-2.505441,-0.1121025,-0.04191864,0.03854501,0.5058538,216,33,0,190,0, t,2
10/6/2020, 12:22:29 ,0.03647618,-0.03270626,-2.505441,-0.1121025,-0.04191864,0.03854501,0.5058538,216,33,0,190,0, t,2
10/6/2020, 12:22:29 ,0.01810228,0.005655803,-2.487088,0.09891747,-0.06221756,0.01252645,0.5058538,216,33,0,190,0, t,2
10/6/2020, 12:22:29 ,0.01810228,0.005655803,-2.487088,0.09891747,-0.06221756,0.01252645,0.5711721,217,33,0,190,0, t,2
10/6/2020, 12:22:29 ,0.02387581,-0.006165657,-2.485425,-0.06227775,0.08529927,0.02347144,0.5711721,217,33,0,190,0, t,2
10/6/2020, 12:22:29 ,0.02387581,-0.006165657,-2.485425,-0.06227775,0.08529927,0.02347144,0.5260885,217,33,0,190,0, t,2
10/6/2020, 12:22:30 ,0.02387581,-0.006165657,-2.485425,-0.06227775,0.08529927,0.02347144,0.5260885,217,33,0,190,0, t,2
10/6/2020, 12:22:30 ,0.02436064,0.007763002,-2.482587,0.02081482,0.08056191,0.00893245,0.5260885,217,33,0,190,0, t,2
10/6/2020, 12:22:30 ,0.02436064,0.007763002,-2.482587,0.02081482,0.08056191,0.00893245,0.5333464,217,33,0,190,0, t,2
10/6/2020, 12:22:30 ,0.02436064,0.007763002,-2.482587,0.02081482,0.08056191,0.00893245,0.5333464,217,33,0,190,0, t,2
10/6/2020, 12:22:31 ,0.02174581,-0.02663153,-2.477849,0.02452636,0.006830608,0.01844145,0.5333464,217,33,0,190,0, t,2
10/6/2020, 12:22:31 ,0.02174581,-0.02663153,-2.477849,0.02452636,0.006830608,0.01844145,0.5325883,218,33,0,190,0, t,2
10/6/2020, 12:22:31 ,0.03273718,-0.001817595,-2.471629,0.01693957,-0.1510682,-0.008250025,0.5325883,218,33,0,190,0, t,2
10/6/2020, 12:22:31 ,0.03273718,-0.001817595,-2.471629,0.01693957,-0.1510682,-0.008250025,0.5707865,218,33,0,190,0, t,2
10/6/2020, 12:22:31 ,0.03273718,-0.001817595,-2.471629,0.01693957,-0.1510682,-0.008250025,0.5707865,218,33,0,190,0, t,2
10/6/2020, 12:22:31 ,0.007945366,-0.001527295,-2.465633,-0.08370004,0.1494134,0.06277922,0.5707865,218,33,0,190,0, t,2
10/6/2020, 12:22:31 ,0.007945366,-0.001527295,-2.465633,-0.08370004,0.1494134,0.06277922,0.5513836,218,33,0,190,0, t,2
10/6/2020, 12:22:32 ,0.007945366,-0.001527295,-2.465633,-0.08370004,0.1494134,0.06277922,0.5513836,218,33,0,190,0, t,2
10/6/2020, 12:22:32 ,0.03965215,-0.0111306,-2.466172,-0.0127493,-0.05220596,-0.02168725,0.5513836,218,33,0,190,0, t,2
10/6/2020, 12:22:32 ,0.03965215,-0.0111306,-2.466172,-0.0127493,-0.05220596,-0.02168725,0.5557019,218,33,0,190,0, t,2
10/6/2020, 12:22:32 ,0.001811389,-0.009382159,-2.459503,-0.0988015,0.03220387,0.02635997,0.5557019,218,33,0,190,0, t,2
10/6/2020, 12:22:32 ,0.001811389,-0.009382159,-2.459503,-0.0988015,0.03220387,0.02635997,0.5369172,219,33,0,190,0, t,2
10/6/2020, 12:22:33 ,0.001811389,-0.009382159,-2.459503,-0.0988015,0.03220387,0.02635997,0.5369172,219,33,0,190,0, t,2
10/6/2020, 12:22:33 ,0.04082539,-0.01678848,-2.462271,0.04220337,-0.02911915,-0.007936961,0.5369172,219,33,0,190,0, t,2
10/6/2020, 12:22:33 ,0.04082539,-0.01678848,-2.462271,0.04220337,-0.02911915,-0.007936961,0.5660339,218,33,0,190,0, t,2
10/6/2020, 12:22:33 ,0.02151988,-0.002702434,-2.459661,0.008078638,0.05537409,0.003540301,0.5660339,218,33,0,190,0, t,2
10/6/2020, 12:22:33 ,0.02151988,-0.002702434,-2.459661,0.008078638,0.05537409,0.003540301,0.5358804,219,33,0,190,0, t,2
10/6/2020, 12:22:33 ,0.02151988,-0.002702434,-2.459661,0.008078638,0.05537409,0.003540301,0.5358804,219,33,0,190,0, t,2
10/6/2020, 12:22:34 ,0.01389836,-0.01966596,-2.469686,-0.07696463,-0.07473651,-0.02292319,0.5358804,219,33,0,190,0, t,2
10/6/2020, 12:22:34 ,0.01389836,-0.01966596,-2.469686,-0.07696463,-0.07473651,-0.02292319,0.5412847,218,33,0,190,0, t,2
10/6/2020, 12:22:34 ,0.01389836,-0.01966596,-2.469686,-0.07696463,-0.07473651,-0.02292319,0.5412847,218,33,0,190,0, t,2
10/6/2020, 12:22:35 ,0.03885837,0.01211775,-2.468161,0.1151496,-0.00899928,-0.001821992,0.5412847,218,33,0,190,0, t,2
10/6/2020, 12:22:35 ,0.03885837,0.01211775,-2.468161,0.1151496,-0.00899928,-0.001821992,0.5313044,218,33,0,190,0, t,2
10/6/2020, 12:22:35 ,0.02054057,-0.02821981,-2.469403,-0.07125244,0.06587289,0.009365833,0.5313044,218,33,0,190,0, t,2
10/6/2020, 12:22:35 ,0.02054057,-0.02821981,-2.469403,-0.07125244,0.06587289,0.009365833,0.5156186,218,33,0,190,0, t,2
10/6/2020, 12:22:35 ,0.02054057,-0.02821981,-2.469403,-0.07125244,0.06587289,0.009365833,0.5156186,218,33,0,190,0, t,2
10/6/2020, 12:22:36 ,0.02757462,0.000772115,-2.47187,0.06624177,-0.1449175,-0.0149208,0.5156186,218,33,0,190,0, t,2
10/6/2020, 12:22:36 ,0.02757462,0.000772115,-2.47187,0.06624177,-0.1449175,-0.0149208,0.5181254,218,33,0,190,0, t,2
10/6/2020, 12:22:36 ,0.02757462,0.000772115,-2.47187,0.06624177,-0.1449175,-0.0149208,0.5181254,218,33,0,190,0, t,2
10/6/2020, 12:22:36 ,0.01570859,-0.006332148,-2.473217,-0.02094057,0.08969983,0.02556497,0.5181254,218,33,0,190,0, t,2
10/6/2020, 12:22:36 ,0.03060196,-0.01168742,-2.481922,-0.06508718,-0.09030007,-0.02246214,0.5181254,218,33,0,190,0, t,2
10/6/2020, 12:22:36 ,0.03060196,-0.01168742,-2.481922,-0.06508718,-0.09030007,-0.02246214,0.5166196,217,33,0,190,0, t,2
10/6/2020, 12:22:37 ,0.03060196,-0.01168742,-2.481922,-0.06508718,-0.09030007,-0.02246214,0.5166196,217,33,0,190,0, t,2
10/6/2020, 12:22:37 ,0.03060196,-0.01168742,-2.481922,-0.06508718,-0.09030007,-0.02246214,0.5291187,218,33,0,190,0, t,2
10/6/2020, 12:22:37 ,0.03060196,-0.01168742,-2.481922,-0.06508718,-0.09030007,-0.02246214,0.5291187,218,33,0,190,0, t,2
10/6/2020, 12:22:38 ,0.009436987,-0.007668339,-2.48185,-0.02158584,-0.08738837,-0.008019447,0.5291187,218,33,0,190,0, t,2
10/6/2020, 12:22:38 ,0.009436987,-0.007668339,-2.48185,-0.02158584,-0.08738837,-0.008019447,0.4972007,217,33,0,190,0, t,2
10/6/2020, 12:22:38 ,0.03599727,-0.01564995,-2.482547,0.02769312,-0.117041,0.004040314,0.4972007,217,33,0,190,0, t,2
10/6/2020, 12:22:38 ,0.03599727,-0.01564995,-2.482547,0.02769312,-0.117041,0.004040314,0.5106349,217,33,0,190,0, t,2
10/6/2020, 12:22:38 ,0.03599727,-0.01564995,-2.482547,0.02769312,-0.117041,0.004040314,0.5106349,217,33,0,190,0, t,2
10/6/2020, 12:22:39 ,0.02166527,-0.005235817,-2.478086,0.02889766,-0.03172735,0.01391406,0.5106349,217,33,0,190,0, t,2
10/6/2020, 12:22:39 ,0.02166527,-0.005235817,-2.478086,0.02889766,-0.03172735,0.01391406,0.5342008,218,33,0,190,0, t,2
10/6/2020, 12:22:39 ,0.02166527,-0.005235817,-2.478086,0.02889766,-0.03172735,0.01391406,0.5342008,218,33,0,190,0, t,2
10/6/2020, 12:22:39 ,0.01697063,-0.01274086,-2.470951,0.0280526,-0.07860613,0.00135032,0.5342008,218,33,0,190,0, t,2
10/6/2020, 12:22:39 ,0.01697063,-0.01274086,-2.470951,0.0280526,-0.07860613,0.00135032,0.5424696,218,33,0,190,0, t,2
10/6/2020, 12:22:40 ,0.01697063,-0.01274086,-2.470951,0.0280526,-0.07860613,0.00135032,0.5424696,218,33,0,190,0, t,2
10/6/2020, 12:22:40 ,0.01006354,-0.02405196,-2.455733,-0.1046583,-0.07894021,0.03338903,0.5424696,218,33,0,190,0, t,2
10/6/2020, 12:22:40 ,0.01006354,-0.02405196,-2.455733,-0.1046583,-0.07894021,0.03338903,0.5339568,219,33,0,190,0, t,2
10/6/2020, 12:22:40 ,0.03377592,-0.01783181,-2.436191,-0.02881113,-0.05780438,0.04459868,0.5339568,219,33,0,190,0, t,2
10/6/2020, 12:22:40 ,0.03377592,-0.01783181,-2.436191,-0.02881113,-0.05780438,0.04459868,0.5326153,220,33,0,190,0, t,2
10/6/2020, 12:22:41 ,0.03377592,-0.01783181,-2.436191,-0.02881113,-0.05780438,0.04459868,0.5326153,220,33,0,190,0, t,2
10/6/2020, 12:22:41 ,0.02218535,-0.01030442,-2.412856,0.07273142,-0.06358787,0.0116249,0.5326153,220,33,0,190,0, t,2
10/6/2020, 12:22:41 ,0.02218535,-0.01030442,-2.412856,0.07273142,-0.06358787,0.0116249,0.5269606,221,33,0,190,0, t,2
10/6/2020, 12:22:41 ,0.02218535,-0.01030442,-2.412856,0.07273142,-0.06358787,0.0116249,0.5269606,221,33,0,190,0, t,2
10/6/2020, 12:22:42 ,0.02665416,-0.003058922,-2.386286,-0.02465439,-0.000357538,0.04101132,0.5269606,221,33,0,190,0, t,2
10/6/2020, 12:22:42 ,0.02665416,-0.003058922,-2.386286,-0.02465439,-0.000357538,0.04101132,0.5127324,223,33,0,190,0, t,2
10/6/2020, 12:22:42 ,0.02665416,-0.003058922,-2.386286,-0.02465439,-0.000357538,0.04101132,0.5127324,223,33,0,190,0, t,2
10/6/2020, 12:22:43 ,0.01174305,-0.007340502,-2.362817,0.09518982,-0.006427391,0.04246466,0.5127324,223,33,0,190,0, t,2
10/6/2020, 12:22:43 ,0.01174305,-0.007340502,-2.362817,0.09518982,-0.006427391,0.04246466,0.4922938,224,33,0,190,0, t,2
10/6/2020, 12:22:43 ,0.03095442,-0.02063888,-2.336334,-0.1236047,-0.05890717,0.03788238,0.4922938,224,33,0,190,0, t,2
10/6/2020, 12:22:43 ,0.03095442,-0.02063888,-2.336334,-0.1236047,-0.05890717,0.03788238,0.4863195,226,33,0,190,0, t,2
10/6/2020, 12:22:43 ,0.03095442,-0.02063888,-2.336334,-0.1236047,-0.05890717,0.03788238,0.4863195,226,33,0,190,0, t,2
10/6/2020, 12:22:44 ,0.009146946,-0.001621347,-2.323685,0.004565741,0.001396371,0.03659162,0.4863195,226,33,0,190,0, t,2
10/6/2020, 12:22:44 ,0.009146946,-0.001621347,-2.323685,0.004565741,0.001396371,0.03659162,0.4783916,226,33,0,190,0, t,2
10/6/2020, 12:22:44 ,0.009146946,-0.001621347,-2.323685,0.004565741,0.001396371,0.03659162,0.4783916,226,33,0,190,0, t,2
10/6/2020, 12:22:44 ,0.034112,-0.01257947,-2.309703,-0.03962046,0.02692525,0.01491849,0.4783916,226,33,0,190,0, t,2
10/6/2020, 12:22:44 ,0.034112,-0.01257947,-2.309703,-0.03962046,0.02692525,0.01491849,0.4511727,227,33,0,190,0, t,2
10/6/2020, 12:22:45 ,0.034112,-0.01257947,-2.309703,-0.03962046,0.02692525,0.01491849,0.4511727,227,33,0,190,0, t,2
10/6/2020, 12:22:45 ,0.01088681,-0.01955003,-2.296751,-0.03599061,-0.0374753,0.02860503,0.4511727,227,33,0,190,0, t,2
10/6/2020, 12:22:45 ,0.01088681,-0.01955003,-2.296751,-0.03599061,-0.0374753,0.02860503,0.4563383,228,33,0,190,0, t,2
10/6/2020, 12:22:45 ,0.04069108,0.002508666,-2.29371,0.07821342,-0.0749075,-0.001107758,0.4563383,228,33,0,190,0, t,2
10/6/2020, 12:22:45 ,0.04069108,0.002508666,-2.29371,0.07821342,-0.0749075,-0.001107758,0.4658502,228,33,0,190,0, t,2
10/6/2020, 12:22:46 ,0.04069108,0.002508666,-2.29371,0.07821342,-0.0749075,-0.001107758,0.4658502,228,33,0,190,0, t,2
10/6/2020, 12:22:46 ,0.009503171,0.00977191,-2.282295,-0.02662019,0.1973513,0.03736091,0.4658502,228,33,0,190,0, t,2
10/6/2020, 12:22:46 ,0.009503171,0.00977191,-2.282295,-0.02662019,0.1973513,0.03736091,0.4761276,229,33,0,190,0, t,2
10/6/2020, 12:22:46 ,0.009503171,0.00977191,-2.282295,-0.02662019,0.1973513,0.03736091,0.4761276,229,33,0,190,0, t,2
10/6/2020, 12:22:47 ,0.0253449,-0.02883115,-2.285032,-0.05309349,0.001121638,-0.008418314,0.4761276,229,33,0,190,0, t,2
10/6/2020, 12:22:47 ,0.0253449,-0.02883115,-2.285032,-0.05309349,0.001121638,-0.008418314,0.4825376,229,33,0,190,0, t,2
10/6/2020, 12:22:47 ,0.02987465,-0.01747311,-2.282718,-0.0503764,-0.1147726,0.004247541,0.4825376,229,33,0,190,0, t,2
10/6/2020, 12:22:47 ,0.02987465,-0.01747311,-2.282718,-0.0503764,-0.1147726,0.004247541,0.5442191,229,33,0,190,0, t,2
10/6/2020, 12:22:47 ,0.02987465,-0.01747311,-2.282718,-0.0503764,-0.1147726,0.004247541,0.5442191,229,33,0,190,0, t,2
10/6/2020, 12:22:48 ,0.0167286,0.01640004,-2.298248,-0.000957072,-0.00727006,-0.03055634,0.5442191,229,33,0,190,0, t,2
10/6/2020, 12:22:48 ,0.0167286,0.01640004,-2.298248,-0.000957072,-0.00727006,-0.03055634,0.5148293,228,33,0,190,0, t,2
10/6/2020, 12:22:48 ,0.0167286,0.01640004,-2.298248,-0.000957072,-0.00727006,-0.03055634,0.5148293,228,33,0,190,0, t,2
10/6/2020, 12:22:48 ,0.03954357,-0.000173349,-2.310508,0.09445244,0.2114921,-0.01861088,0.5148293,228,33,0,190,0, t,2
10/6/2020, 12:22:48 ,0.03954357,-0.000173349,-2.310508,0.09445244,0.2114921,-0.01861088,0.522411,227,33,0,190,0, t,2
10/6/2020, 12:22:48 ,0.02596802,-0.02143688,-2.317304,-0.0606357,-0.06282209,-0.03030856,0.522411,227,33,0,190,0, t,2
10/6/2020, 12:22:48 ,0.02596802,-0.02143688,-2.317304,-0.0606357,-0.06282209,-0.03030856,0.5149927,227,33,0,190,0, t,2
10/6/2020, 12:22:49 ,0.02596802,-0.02143688,-2.317304,-0.0606357,-0.06282209,-0.03030856,0.5149927,227,33,0,190,0, t,2
10/6/2020, 12:22:49 ,0.007888986,-0.00453233,-2.327837,0.05350711,-0.06348941,0.004591524,0.5149927,227,33,0,190,0, t,2
10/6/2020, 12:22:49 ,0.007888986,-0.00453233,-2.327837,0.05350711,-0.06348941,0.004591524,0.5169378,226,33,0,190,0, t,2
10/6/2020, 12:22:50 ,0.007888986,-0.00453233,-2.327837,0.05350711,-0.06348941,0.004591524,0.5169378,226,33,0,190,0, t,2
10/6/2020, 12:22:50 ,0.05489367,-0.01025416,-2.332963,-0.01864018,-0.01775477,-0.00342384,0.5169378,226,33,0,190,0, t,2
10/6/2020, 12:22:50 ,0.05489367,-0.01025416,-2.332963,-0.01864018,-0.01775477,-0.00342384,0.5216525,226,33,0,190,0, t,2
10/6/2020, 12:22:50 ,-0.005683735,-0.001304593,-2.334208,0.008377709,0.002115092,-0.02225287,0.5216525,226,33,0,190,0, t,2
10/6/2020, 12:22:50 ,-0.005683735,-0.001304593,-2.334208,0.008377709,0.002115092,-0.02225287,0.4968046,226,33,0,190,0, t,2
10/6/2020, 12:22:50 ,-0.005683735,-0.001304593,-2.334208,0.008377709,0.002115092,-0.02225287,0.4968046,226,33,0,190,0, t,2
10/6/2020, 12:22:51 ,0.04718926,-0.005253028,-2.33947,0.03721992,0.1112588,0.01768118,0.4968046,226,33,0,190,0, t,2
10/6/2020, 12:22:51 ,0.04718926,-0.005253028,-2.33947,0.03721992,0.1112588,0.01768118,0.5042779,225,33,0,190,0, t,2
10/6/2020, 12:22:51 ,0.04718926,-0.005253028,-2.33947,0.03721992,0.1112588,0.01768118,0.5042779,225,33,0,190,0, t,2
10/6/2020, 12:22:51 ,0.003580885,-0.01744231,-2.34164,-0.1162922,-0.08462936,-0.008739025,0.5042779,225,33,0,190,0, t,2
10/6/2020, 12:22:51 ,0.003580885,-0.01744231,-2.34164,-0.1162922,-0.08462936,-0.008739025,0.4827714,225,33,0,190,0, t,2
10/6/2020, 12:22:51 ,0.04057593,0.006264567,-2.342907,0.1994599,0.04263559,-0.00467049,0.4827714,225,33,0,190,0, t,2
10/6/2020, 12:22:51 ,0.04057593,0.006264567,-2.342907,0.1994599,0.04263559,-0.00467049,0.5099981,225,33,0,190,0, t,2
10/6/2020, 12:22:52 ,0.04057593,0.006264567,-2.342907,0.1994599,0.04263559,-0.00467049,0.5099981,225,33,0,190,0, t,2
10/6/2020, 12:22:52 ,0.01585297,-0.03018586,-2.342591,-0.2418699,-0.1341954,-0.007123281,0.5099981,225,33,0,190,0, t,2
10/6/2020, 12:22:52 ,0.01585297,-0.03018586,-2.342591,-0.2418699,-0.1341954,-0.007123281,0.5007588,225,33,0,190,0, t,2
10/6/2020, 12:22:52 ,0.01585297,-0.03018586,-2.342591,-0.2418699,-0.1341954,-0.007123281,0.5007588,225,33,0,190,0, t,2
10/6/2020, 12:22:53 ,0.01964324,0.02247611,-2.339272,0.180424,0.1258605,0.002379105,0.5007588,225,33,0,190,0, t,2
10/6/2020, 12:22:53 ,0.01964324,0.02247611,-2.339272,0.180424,0.1258605,0.002379105,0.5206564,225,33,0,190,0, t,2
10/6/2020, 12:22:53 ,0.03065941,-0.01818554,-2.342275,-0.1387527,0.02996782,0.0174631,0.5206564,225,33,0,190,0, t,2
10/6/2020, 12:22:53 ,0.03065941,-0.01818554,-2.342275,-0.1387527,0.02996782,0.0174631,0.4462819,225,33,0,190,0, t,2
10/6/2020, 12:22:53 ,0.03065941,-0.01818554,-2.342275,-0.1387527,0.02996782,0.0174631,0.4462819,225,33,0,190,0, t,2
10/6/2020, 12:22:53 ,0.01667286,-0.008728199,-2.340996,0.06232974,-0.1554566,-0.02924212,0.4462819,225,33,0,190,0, t,2
10/6/2020, 12:22:53 ,0.01667286,-0.008728199,-2.340996,0.06232974,-0.1554566,-0.02924212,0.5050608,225,33,0,190,0, t,2
10/6/2020, 12:22:54 ,0.01667286,-0.008728199,-2.340996,0.06232974,-0.1554566,-0.02924212,0.5050608,225,33,0,190,0, t,2
10/6/2020, 12:22:54 ,0.03025691,0.01242206,-2.347765,-0.04185205,0.1071911,0.01386208,0.5050608,225,33,0,190,0, t,2
10/6/2020, 12:22:54 ,0.03025691,0.01242206,-2.347765,-0.04185205,0.1071911,0.01386208,0.494454,225,33,0,190,0, t,2
10/6/2020, 12:22:54 ,0.0187353,-0.01321687,-2.361252,-0.003419378,0.004392336,-0.04804081,0.494454,225,33,0,190,0, t,2
10/6/2020, 12:22:54 ,0.0187353,-0.01321687,-2.361252,-0.003419378,0.004392336,-0.04804081,0.492701,224,33,0,190,0, t,2
10/6/2020, 12:22:55 ,0.0187353,-0.01321687,-2.361252,-0.003419378,0.004392336,-0.04804081,0.492701,224,33,0,190,0, t,2
10/6/2020, 12:22:55 ,0.02680491,-0.00093504,-2.366375,0.02405491,0.02731536,-0.002704469,0.492701,224,33,0,190,0, t,2
10/6/2020, 12:22:55 ,0.02680491,-0.00093504,-2.366375,0.02405491,0.02731536,-0.002704469,0.5009543,224,33,0,190,0, t,2
10/6/2020, 12:22:55 ,0.02680491,-0.00093504,-2.366375,0.02405491,0.02731536,-0.002704469,0.5009543,224,33,0,190,0, t,2
10/6/2020, 12:22:56 ,0.04341519,-0.01349669,-2.385108,0.01444655,-0.04264997,-0.04045159,0.5009543,224,33,0,190,0, t,2
10/6/2020, 12:22:56 ,0.04341519,-0.01349669,-2.385108,0.01444655,-0.04264997,-0.04045159,0.521431,223,33,0,190,0, t,2
10/6/2020, 12:22:56 ,0.00223257,0.003761027,-2.395008,0.00805005,0.08506615,-0.02445034,0.521431,223,33,0,190,0, t,2
10/6/2020, 12:22:56 ,0.00223257,0.003761027,-2.395008,0.00805005,0.08506615,-0.02445034,0.5301729,222,33,0,190,0, t,2
10/6/2020, 12:22:56 ,0.00223257,0.003761027,-2.395008,0.00805005,0.08506615,-0.02445034,0.5301729,222,33,0,190,0, t,2
10/6/2020, 12:22:56 ,0.0452548,-0.02068748,-2.415227,0.008485453,0.008912684,-0.02690158,0.5301729,222,33,0,190,0, t,2
10/6/2020, 12:22:56 ,0.0452548,-0.02068748,-2.415227,0.008485453,0.008912684,-0.02690158,0.5357824,221,33,0,190,0, t,2
10/6/2020, 12:22:57 ,0.0452548,-0.02068748,-2.415227,0.008485453,0.008912684,-0.02690158,0.5357824,221,33,0,190,0, t,2
10/6/2020, 12:22:57 ,0.009934306,0.004892953,-2.418849,-0.0331233,-0.06999213,-0.02754597,0.5357824,221,33,0,190,0, t,2
10/6/2020, 12:22:57 ,0.009934306,0.004892953,-2.418849,-0.0331233,-0.06999213,-0.02754597,0.5389208,221,33,0,190,0, t,2
10/6/2020, 12:22:57 ,0.03508632,-0.01306926,-2.432669,0.04714388,0.1120266,-0.007106416,0.5389208,221,33,0,190,0, t,2
10/6/2020, 12:22:57 ,0.03508632,-0.01306926,-2.432669,0.04714388,0.1120266,-0.007106416,0.5582387,220,33,0,190,0, t,2
10/6/2020, 12:22:57 ,0.03508632,-0.01306926,-2.432669,0.04714388,0.1120266,-0.007106416,0.5582387,220,33,0,190,0, t,2
10/6/2020, 12:22:58 ,0.03323503,-0.008688405,-2.43118,0.02467528,-0.1686972,-0.0221659,0.5582387,220,33,0,190,0, t,2
10/6/2020, 12:22:58 ,0.03323503,-0.008688405,-2.43118,0.02467528,-0.1686972,-0.0221659,0.5396141,220,33,0,190,0, t,2
10/6/2020, 12:22:58 ,0.003646895,-0.01291418,-2.430269,-0.02240297,0.1554313,0.01295413,0.5396141,220,33,0,190,0, t,2
10/6/2020, 12:22:58 ,0.003646895,-0.01291418,-2.430269,-0.02240297,0.1554313,0.01295413,0.5751448,220,33,0,190,0, t,2
10/6/2020, 12:22:58 ,0.003646895,-0.01291418,-2.430269,-0.02240297,0.1554313,0.01295413,0.5751448,220,33,0,190,0, t,2
10/6/2020, 12:22:59 ,0.04851554,-0.005093675,-2.433244,-0.02369472,-0.1748091,-0.00640531,0.5751448,220,33,0,190,0, t,2
10/6/2020, 12:22:59 ,0.04851554,-0.005093675,-2.433244,-0.02369472,-0.1748091,-0.00640531,0.5534775,220,33,0,190,0, t,2
10/6/2020, 12:22:59 ,0.04851554,-0.005093675,-2.433244,-0.02369472,-0.1748091,-0.00640531,0.5534775,220,33,0,190,0, t,2
10/6/2020, 12:22:59 ,-8.78E-05,-0.0133801,-2.429109,-0.06069499,0.08792359,0.02284226,0.5534775,220,33,0,190,0, t,2
10/6/2020, 12:22:59 ,-8.78E-05,-0.0133801,-2.429109,-0.06069499,0.08792359,0.02284226,0.5392216,220,33,0,190,0, t,2
10/6/2020, 12:22:59 ,0.05301926,-0.005075324,-2.432718,0.1450182,-0.08203511,-0.03067985,0.5392216,220,33,0,190,0, t,2
10/6/2020, 12:23:00 ,0.05301926,-0.005075324,-2.432718,0.1450182,-0.08203511,-0.03067985,0.572069,220,33,0,190,0, t,2
10/6/2020, 12:23:00 ,0.05301926,-0.005075324,-2.432718,0.1450182,-0.08203511,-0.03067985,0.572069,220,33,0,190,0, t,2
10/6/2020, 12:23:00 ,0.00444196,-0.01007686,-2.424973,-0.224749,0.1064593,0.05532727,0.572069,220,33,0,190,0, t,2
10/6/2020, 12:23:00 ,0.00444196,-0.01007686,-2.424973,-0.224749,0.1064593,0.05532727,0.5292577,221,33,0,190,0, t,2
10/6/2020, 12:23:00 ,0.00444196,-0.01007686,-2.424973,-0.224749,0.1064593,0.05532727,0.5292577,221,33,0,190,0, t,2
10/6/2020, 12:23:01 ,0.02919849,-0.007386506,-2.432598,0.2113197,-0.1373513,-0.07131106,0.5292577,221,33,0,190,0, t,2
10/6/2020, 12:23:01 ,0.02919849,-0.007386506,-2.432598,0.2113197,-0.1373513,-0.07131106,0.562963,220,33,0,190,0, t,2
10/6/2020, 12:23:01 ,0.0338113,0.000344161,-2.416272,-0.08106481,0.1230586,0.09556215,0.562963,220,33,0,190,0, t,2
10/6/2020, 12:23:01 ,0.0338113,0.000344161,-2.416272,-0.08106481,0.1230586,0.09556215,0.5416545,221,33,0,190,0, t,2
10/6/2020, 12:23:01 ,0.0338113,0.000344161,-2.416272,-0.08106481,0.1230586,0.09556215,0.5416545,221,33,0,190,0, t,2
10/6/2020, 12:23:01 ,0.0270604,-0.01241178,-2.406869,0.01407984,-0.07743351,-0.01343582,0.5416545,221,33,0,190,0, t,2
10/6/2020, 12:23:01 ,0.0270604,-0.01241178,-2.406869,0.01407984,-0.07743351,-0.01343582,0.5415346,222,33,0,190,0, t,2
10/6/2020, 12:23:02 ,-0.001962017,-0.01661816,-2.407285,-0.06999642,0.02469782,0.02633466,0.5415346,222,33,0,190,0, t,2
10/6/2020, 12:23:02 ,-0.001962017,-0.01661816,-2.407285,-0.06999642,0.02469782,0.02633466,0.541164,222,33,0,190,0, t,2
10/6/2020, 12:23:02 ,-0.001962017,-0.01661816,-2.407285,-0.06999642,0.02469782,0.02633466,0.541164,222,33,0,190,0, t,2
10/6/2020, 12:23:02 ,0.04188563,0.01513897,-2.394637,0.1135398,0.05975579,0.02256923,0.541164,222,33,0,190,0, t,2
10/6/2020, 12:23:02 ,0.04188563,0.01513897,-2.394637,0.1135398,0.05975579,0.02256923,0.5120937,222,33,0,190,0, t,2
10/6/2020, 12:23:02 ,0.04188563,0.01513897,-2.394637,0.1135398,0.05975579,0.02256923,0.5120937,222,33,0,190,0, t,2
10/6/2020, 12:23:03 ,0.02637579,-0.0370765,-2.396823,-0.06480179,-0.106932,-0.007134998,0.5120937,222,33,0,190,0, t,2
10/6/2020, 12:23:03 ,0.02637579,-0.0370765,-2.396823,-0.06480179,-0.106932,-0.007134998,0.5208515,222,33,0,190,0, t,2
10/6/2020, 12:23:03 ,0.01906021,0.005257495,-2.396261,-0.001257101,0.114398,0.006092625,0.5208515,222,33,0,190,0, t,2
10/6/2020, 12:23:03 ,0.01906021,0.005257495,-2.396261,-0.001257101,0.114398,0.006092625,0.5493269,222,33,0,190,0, t,2
10/6/2020, 12:23:03 ,0.01906021,0.005257495,-2.396261,-0.001257101,0.114398,0.006092625,0.5493269,222,33,0,190,0, t,2
10/6/2020, 12:23:04 ,0.02769024,-0.01452187,-2.403043,0.006947096,-0.07466064,-0.009590385,0.5493269,222,33,0,190,0, t,2
10/6/2020, 12:23:04 ,0.02769024,-0.01452187,-2.403043,0.006947096,-0.07466064,-0.009590385,0.528137,222,33,0,190,0, t,2
10/6/2020, 12:23:04 ,0.01835043,0.0023151,-2.405298,0.02294542,0.07023121,-0.000453569,0.528137,222,33,0,190,0, t,2
10/6/2020, 12:23:04 ,0.01835043,0.0023151,-2.405298,0.02294542,0.07023121,-0.000453569,0.5095711,222,33,0,190,0, t,2
10/6/2020, 12:23:04 ,0.01835043,0.0023151,-2.405298,0.02294542,0.07023121,-0.000453569,0.5095711,222,33,0,190,0, t,2
10/6/2020, 12:23:04 ,0.03527871,-0.02543708,-2.409091,0.01629007,-0.05575199,-0.01014897,0.5095711,222,33,0,190,0, t,2
10/6/2020, 12:23:04 ,0.03527871,-0.02543708,-2.409091,0.01629007,-0.05575199,-0.01014897,0.5236107,221,33,0,190,0, t,2
10/6/2020, 12:23:05 ,0.03527871,-0.02543708,-2.409091,0.01629007,-0.05575199,-0.01014897,0.5236107,221,33,0,190,0, t,2
10/6/2020, 12:23:05 ,0.01474461,0.001235858,-2.411492,-0.06940923,-0.01888053,-0.01608897,0.5236107,221,33,0,190,0, t,2
10/6/2020, 12:23:05 ,0.01474461,0.001235858,-2.411492,-0.06940923,-0.01888053,-0.01608897,0.5190457,221,33,0,190,0, t,2
10/6/2020, 12:23:05 ,0.02026863,-0.007742409,-2.415304,0.08247093,0.07960296,-0.011875,0.5190457,221,33,0,190,0, t,2
10/6/2020, 12:23:05 ,0.02026863,-0.007742409,-2.415304,0.08247093,0.07960296,-0.011875,0.4988551,221,33,0,190,0, t,2
10/6/2020, 12:23:05 ,0.02026863,-0.007742409,-2.415304,0.08247093,0.07960296,-0.011875,0.4988551,221,33,0,190,0, t,2
10/6/2020, 12:23:06 ,0.03280167,-0.01594523,-2.408947,-0.05859711,-0.07003215,0.02075845,0.4988551,221,33,0,190,0, t,2
10/6/2020, 12:23:06 ,0.03280167,-0.01594523,-2.408947,-0.05859711,-0.07003215,0.02075845,0.4894747,221,33,0,190,0, t,2
10/6/2020, 12:23:06 ,0.03280167,-0.01594523,-2.408947,-0.05859711,-0.07003215,0.02075845,0.4894747,221,33,0,190,0, t,2
10/6/2020, 12:23:07 ,0.02454571,-0.00487322,-2.40728,-0.001342279,0.04294909,-0.008266889,0.4894747,221,33,0,190,0, t,2
