Date, Time, mavlink_attitude_t.roll, mavlink_attitude_t.pitch, mavlink_attitude_t.yaw, mavlink_attitude_t.rollspeed, mavlink_attitude_t.pitchspeed, mavlink_attitude_t.yawspeed, mavlink_vfr_hud_t.groundspeed, mavlink_vfr_hud_t.heading, mavlink_mission_request_t.seq, mavlink_mission_request_t.mission_type, mavlink_mission_request_t.target_component, mavlink_mission_item_int_t.current, mavlink_mission_count_t.count, mavlink_global_position_int_t.lat, mavlink_global_position_int_t.lon
10/6/2020, 12:21:14 ,0.02406025,-0.03571247,-2.210074,-0.02085826,-0.1386078,-0.003918509,0.5268804,233,33,0,190,0, t,444449458,-696008681
10/6/2020, 12:21:15 ,0.008307045,-0.003705628,-2.201947,0.1506856,0.04506018,-0.01547172,0.4796709,233,33,0,190,0, t,444449448,-696008722
10/6/2020, 12:21:16 ,-0.01150844,0.01698105,-2.22282,0.02633081,0.1592471,-0.02691892,0.4588175,233,33,0,190,0, t,444449427,-696008797
10/6/2020, 12:21:17 ,0.009005871,-0.003250357,-2.251531,0.004470893,-0.06519954,-0.04821934,0.4198087,231,33,0,190,0, t,444449427,-696008797
10/6/2020, 12:21:18 ,0.03924072,0.01692871,-2.274727,0.06816252,0.1936563,-0.02239977,0.4215853,231,33,0,190,0, t,444449409,-696008863
10/6/2020, 12:21:19 ,0.06547526,0.02231486,-2.283651,0.3273046,0.08838386,-0.02272044,0.3780654,229,33,0,190,0, t,444449399,-696008892
10/6/2020, 12:21:20 ,0.05389751,-0.02521603,-2.308797,0.1635506,-0.284699,-0.05746361,0.4181539,229,33,0,190,0, t,444449374,-696008952
10/6/2020, 12:21:21 ,0.000275448,0.0201464,-2.29288,-0.104478,0.09307671,0.04966728,0.3885091,228,33,0,190,0, t,444449357,-696008982
10/6/2020, 12:21:23 ,0.02423025,-0.01968227,-2.280212,0.1160498,-0.03888734,0.000225357,0.4058844,229,33,0,190,0, t,444449339,-696009020
10/6/2020, 12:21:24 ,0.03700982,0.01014326,-2.282586,0.1881336,0.01354959,-0.0202532,0.542902,229,33,0,190,0, t,444449280,-696009162
10/6/2020, 12:21:26 ,0.02130708,-0.00292455,-2.30916,-0.008427671,-0.03726757,-0.03639864,0.542902,229,33,0,190,0, t,444449257,-696009218
10/6/2020, 12:21:27 ,0.02130708,-0.00292455,-2.30916,-0.008427671,-0.03726757,-0.03639864,0.6270668,227,33,0,190,0, t,444449201,-696009373
10/6/2020, 12:21:28 ,0.05905752,-0.006135579,-2.379867,0.06975658,-0.1045132,-0.06200693,0.609122,223,33,0,190,0, t,444449183,-696009418
10/6/2020, 12:21:29 ,0.03780392,-0.01465646,-2.406867,0.1630262,-0.1319241,-0.08292893,0.5574121,223,33,0,190,0, t,444449164,-696009465
10/6/2020, 12:21:30 ,0.01490293,-0.01542372,-2.419457,0.05849286,0.02590215,-0.04049808,0.6049224,222,33,0,190,0, t,444449164,-696009465
10/6/2020, 12:21:31 ,0.05313891,-0.005166728,-2.432595,0.1153864,-0.03083681,-0.04365771,0.5820502,221,33,0,190,0, t,444449121,-696009559
10/6/2020, 12:21:32 ,-0.01457603,-0.000973743,-2.438514,-0.2244864,0.04303605,0.01157166,0.5358245,220,33,0,190,0, t,444449079,-696009643
10/6/2020, 12:21:33 ,0.03624959,0.000502583,-2.48354,0.16608,-0.1209605,-0.04507102,0.534577,217,33,0,190,0, t,444449058,-696009685
10/6/2020, 12:21:34 ,0.003042664,-0.03180236,-2.505783,-0.09748958,0.08304695,-0.008440382,0.4762131,217,33,0,190,0, t,444449036,-696009724
10/6/2020, 12:21:35 ,0.005466107,0.000432055,-2.509403,-0.04638945,0.03200506,0.04692331,0.4715661,216,33,0,190,0, t,444449016,-696009761
10/6/2020, 12:21:36 ,0.05194577,-0.02185407,-2.506115,-0.01995638,-0.01929877,-0.01863021,0.4558769,216,33,0,190,0, t,444448993,-696009802
10/6/2020, 12:21:37 ,0.006883062,-0.01627926,-2.477094,-0.1623809,-0.02461471,0.02672105,0.4729876,217,33,0,190,0, t,444448966,-696009844
10/6/2020, 12:21:38 ,0.06233759,-0.008274954,-2.483906,0.06353503,-0.1322865,0.001605567,0.5153076,217,33,0,190,0, t,444448905,-696009932
10/6/2020, 12:21:39 ,0.05220971,-0.009583618,-2.469299,0.1092896,-0.07156065,-0.007288281,0.5397773,218,33,0,190,0, t,444448872,-696009981
10/6/2020, 12:21:40 ,0.02576411,0.000604853,-2.459083,0.198296,-0.03282176,-0.03328797,0.5664367,218,33,0,190,0, t,444448829,-696010032
10/6/2020, 12:21:41 ,0.02069799,0.0193763,-2.4414,0.112074,0.1033691,0.02001571,0.5600508,219,33,0,190,0, t,444448790,-696010081
10/6/2020, 12:21:43 ,0.004850145,-0.0171488,-2.367838,-0.04007753,-0.03465024,0.01065225,0.5415323,220,33,0,190,0, t,444448753,-696010121
10/6/2020, 12:21:44 ,0.03096545,-0.01090783,-2.335438,0.02778104,0.09523778,0.04098428,0.4959696,225,33,0,190,0, t,444448697,-696010194
10/6/2020, 12:21:45 ,0.01955561,-0.01761295,-2.32136,-0.08143721,-0.09441718,-0.01525153,0.4796433,227,33,0,190,0, t,444448657,-696010273
10/6/2020, 12:21:46 ,0.02360754,0.00041825,-2.263427,0.009313161,-0.1020185,0.007543387,0.4828602,229,33,0,190,0, t,444448637,-696010320
10/6/2020, 12:21:47 ,0.02907086,-0.009230576,-2.257866,0.02705315,0.119468,0.03613156,0.4691617,230,33,0,190,0, t,444448623,-696010360
10/6/2020, 12:21:48 ,0.00850359,0.01242131,-2.271273,0.1032036,0.04444209,0.003548941,0.4942749,230,33,0,190,0, t,444448614,-696010406
10/6/2020, 12:21:49 ,0.04093517,-0.02036177,-2.282672,-0.0668347,0.00364093,-0.0273209,0.4871363,229,33,0,190,0, t,444448603,-696010447
10/6/2020, 12:21:50 ,0.00966263,0.02348677,-2.320025,0.1362662,0.0376659,0.01696638,0.4911401,227,33,0,190,0, t,444448578,-696010544
10/6/2020, 12:21:51 ,-0.002691057,-0.01418296,-2.331876,-0.2403617,-0.05320217,0.03321033,0.5064185,227,33,0,190,0, t,444448564,-696010594
10/6/2020, 12:21:52 ,0.003808646,0.007312447,-2.356435,0.04088415,0.04162205,-0.02903694,0.4867823,226,33,0,190,0, t,444448550,-696010639
10/6/2020, 12:21:53 ,0.02531293,-0.02651908,-2.382705,-0.1004042,-0.02772563,0.000982171,0.4832437,224,33,0,190,0, t,444448529,-696010683
10/6/2020, 12:21:54 ,0.004694497,0.01757503,-2.398242,0.02299003,-0.09595415,-0.001922918,0.4648198,222,33,0,190,0, t,444448495,-696010763
10/6/2020, 12:21:55 ,-0.001275681,-0.0169736,-2.414913,-0.2290248,-0.02756679,0.01446045,0.4728233,221,33,0,190,0, t,444448476,-696010803
10/6/2020, 12:21:56 ,-0.002045296,-0.01555051,-2.419739,-0.3298433,0.09809927,0.06840785,0.5339468,221,33,0,190,0, t,444448455,-696010840
10/6/2020, 12:21:57 ,-0.002045296,-0.01555051,-2.419739,-0.3298433,0.09809927,0.06840785,0.5360194,221,33,0,190,0, t,444448410,-696010920
10/6/2020, 12:21:58 ,0.001512473,0.01263272,-2.428825,0.1667645,0.04986922,-0.03508642,0.5360194,221,33,0,190,0, t,444448410,-696010920
10/6/2020, 12:21:59 ,0.04679408,0.008925416,-2.443101,0.1233058,-0.008862736,-0.02139882,0.5140586,220,33,0,190,0, t,444448390,-696010959
10/6/2020, 12:22:00 ,0.06609443,-0.01272147,-2.435251,0.01532826,0.04790893,-0.0161415,0.5076396,220,33,0,190,0, t,444448342,-696011032
10/6/2020, 12:22:01 ,0.03170838,-0.01810126,-2.419013,-0.1007475,0.01161685,0.0376065,0.5425655,221,33,0,190,0, t,444448342,-696011032
10/6/2020, 12:22:03 ,0.03170838,-0.01810126,-2.419013,-0.1007475,0.01161685,0.0376065,0.5496568,221,33,0,190,0, t,444448231,-696011226
10/6/2020, 12:22:04 ,0.000145987,-0.001039028,-2.419928,0.07881591,0.08367466,-0.002678056,0.5634596,221,33,0,190,0, t,444448199,-696011281
10/6/2020, 12:22:05 ,0.01069681,0.000563238,-2.427228,-0.2184676,0.003038675,-0.0032434,0.5317867,221,33,0,190,0, t,444448171,-696011333
10/6/2020, 12:22:06 ,0.05147082,-0.002541438,-2.435506,0.1000909,0.04444008,-0.009502024,0.5097872,220,33,0,190,0, t,444448140,-696011398
10/6/2020, 12:22:07 ,-0.004244722,-0.01057987,-2.42971,0.06426478,0.05600489,0.02123767,0.5744613,220,33,0,190,0, t,444448054,-696011520
10/6/2020, 12:22:08 ,0.03397637,-0.01493837,-2.426968,0.164373,-0.06413515,-0.01536773,0.5579415,220,33,0,190,0, t,444448054,-696011520
10/6/2020, 12:22:09 ,0.03343045,-0.01453408,-2.426906,-0.01298684,0.02773153,0.01340088,0.5274921,220,33,0,190,0, t,444448018,-696011575
10/6/2020, 12:22:10 ,0.02613901,0.008628231,-2.408988,-0.04938678,0.1510053,0.01275542,0.5274921,220,33,0,190,0, t,444447966,-696011666
10/6/2020, 12:22:11 ,0.006154358,-0.003944103,-2.384003,-0.1954208,-0.08292858,0.04967282,0.4678248,222,33,0,190,0, t,444447944,-696011707
10/6/2020, 12:22:12 ,0.04067005,0.01120478,-2.380391,0.0883434,0.1382633,0.02750551,0.4451279,223,33,0,190,0, t,444447919,-696011752
10/6/2020, 12:22:13 ,0.0525554,0.002554778,-2.353828,0.1159492,-0.007263274,0.02534707,0.4758867,224,33,0,190,0, t,444447894,-696011798
10/6/2020, 12:22:14 ,-0.008645091,-0.006306268,-2.346573,-0.07332045,0.02335522,0.01396172,0.4913416,225,33,0,190,0, t,444447853,-696011880
10/6/2020, 12:22:15 ,0.01705037,0.01025721,-2.329242,0.03840118,0.07675511,0.03159068,0.4833556,226,33,0,190,0, t,444447835,-696011920
10/6/2020, 12:22:16 ,0.03197756,-0.01772833,-2.328188,-0.09440224,-0.1183038,-0.001955328,0.5040382,226,33,0,190,0, t,444447819,-696011959
10/6/2020, 12:22:17 ,-0.003080796,0.006153725,-2.302014,-0.0759879,0.03793774,0.01090868,0.4796806,228,33,0,190,0, t,444447806,-696011995
10/6/2020, 12:22:18 ,0.03429123,-0.004341464,-2.303598,0.1172047,-0.04762952,-0.004020126,0.4703559,228,33,0,190,0, t,444447780,-696012078
10/6/2020, 12:22:19 ,0.01899869,-0.001015287,-2.304745,-0.02038529,0.120543,0.02611643,0.5318483,228,33,0,190,0, t,444447766,-696012128
10/6/2020, 12:22:20 ,0.02656722,-0.02045159,-2.314967,-0.08470225,-0.1069978,-0.01860216,0.5235823,227,33,0,190,0, t,444447755,-696012176
10/6/2020, 12:22:21 ,0.03411175,-0.00032144,-2.329198,-0.1106918,0.0153491,-0.000468903,0.5081535,226,33,0,190,0, t,444447729,-696012271
10/6/2020, 12:22:22 ,0.01460054,0.01098567,-2.383843,0.002059008,-0.03375888,-0.02479123,0.5018346,224,33,0,190,0, t,444447712,-696012319
10/6/2020, 12:22:23 ,1.40E-06,0.000446886,-2.44584,-0.01301195,-0.06924559,-0.06791192,0.5424201,221,33,0,190,0, t,444447694,-696012367
10/6/2020, 12:22:24 ,0.04487974,-0.007061634,-2.475949,0.02426512,-0.003143021,-0.05675904,0.5213599,218,33,0,190,0, t,444447644,-696012467
10/6/2020, 12:22:25 ,0.01393022,-0.0127673,-2.50527,-0.1407909,-0.03248066,0.04298509,0.5227233,217,33,0,190,0, t,444447616,-696012517
10/6/2020, 12:22:26 ,0.009982387,0.007784009,-2.501163,-0.06557573,0.07569186,0.01855515,0.5351166,216,33,0,190,0, t,444447596,-696012553
10/6/2020, 12:22:27 ,0.0181919,-0.008105606,-2.507307,-0.08684234,-0.000754945,0.005243818,0.490985,216,33,0,190,0, t,444447552,-696012634
10/6/2020, 12:22:28 ,0.03745158,-0.009214763,-2.511304,-0.1451284,-0.09381386,-0.004736494,0.5240473,216,33,0,190,0, t,444447530,-696012671
10/6/2020, 12:22:29 ,0.03647618,-0.03270626,-2.505441,-0.1121025,-0.04191864,0.03854501,0.520646,216,33,0,190,0, t,444447504,-696012714
10/6/2020, 12:22:30 ,0.02436064,0.007763002,-2.482587,0.02081482,0.08056191,0.00893245,0.5260885,217,33,0,190,0, t,444447457,-696012798
10/6/2020, 12:22:31 ,0.02174581,-0.02663153,-2.477849,0.02452636,0.006830608,0.01844145,0.5333464,217,33,0,190,0, t,444447432,-696012836
10/6/2020, 12:22:32 ,0.007945366,-0.001527295,-2.465633,-0.08370004,0.1494134,0.06277922,0.5513836,218,33,0,190,0, t,444447384,-696012914
10/6/2020, 12:22:33 ,0.04082539,-0.01678848,-2.462271,0.04220337,-0.02911915,-0.007936961,0.5369172,219,33,0,190,0, t,444447365,-696012944
10/6/2020, 12:22:34 ,0.01389836,-0.01966596,-2.469686,-0.07696463,-0.07473651,-0.02292319,0.5358804,219,33,0,190,0, t,444447347,-696012980
10/6/2020, 12:22:35 ,0.03885837,0.01211775,-2.468161,0.1151496,-0.00899928,-0.001821992,0.5412847,218,33,0,190,0, t,444447326,-696013013
10/6/2020, 12:22:36 ,0.02757462,0.000772115,-2.47187,0.06624177,-0.1449175,-0.0149208,0.5156186,218,33,0,190,0, t,444447306,-696013046
10/6/2020, 12:22:37 ,0.03060196,-0.01168742,-2.481922,-0.06508718,-0.09030007,-0.02246214,0.5291187,218,33,0,190,0, t,444447267,-696013121
10/6/2020, 12:22:38 ,0.009436987,-0.007668339,-2.48185,-0.02158584,-0.08738837,-0.008019447,0.5291187,218,33,0,190,0, t,444447243,-696013164
10/6/2020, 12:22:39 ,0.02166527,-0.005235817,-2.478086,0.02889766,-0.03172735,0.01391406,0.5106349,217,33,0,190,0, t,444447212,-696013208
10/6/2020, 12:22:40 ,0.01697063,-0.01274086,-2.470951,0.0280526,-0.07860613,0.00135032,0.5424696,218,33,0,190,0, t,444447141,-696013300
10/6/2020, 12:22:41 ,0.02218535,-0.01030442,-2.412856,0.07273142,-0.06358787,0.0116249,0.5326153,220,33,0,190,0, t,444447109,-696013340
10/6/2020, 12:22:42 ,0.02665416,-0.003058922,-2.386286,-0.02465439,-0.000357538,0.04101132,0.5269606,221,33,0,190,0, t,444447079,-696013378
10/6/2020, 12:22:43 ,0.01174305,-0.007340502,-2.362817,0.09518982,-0.006427391,0.04246466,0.5127324,223,33,0,190,0, t,444447056,-696013411
10/6/2020, 12:22:44 ,0.009146946,-0.001621347,-2.323685,0.004565741,0.001396371,0.03659162,0.4863195,226,33,0,190,0, t,444447036,-696013447
10/6/2020, 12:22:45 ,0.034112,-0.01257947,-2.309703,-0.03962046,0.02692525,0.01491849,0.4511727,227,33,0,190,0, t,444447008,-696013517
10/6/2020, 12:22:46 ,0.04069108,0.002508666,-2.29371,0.07821342,-0.0749075,-0.001107758,0.4658502,228,33,0,190,0, t,444446995,-696013554
10/6/2020, 12:22:47 ,0.0253449,-0.02883115,-2.285032,-0.05309349,0.001121638,-0.008418314,0.4761276,229,33,0,190,0, t,444446979,-696013595
10/6/2020, 12:22:48 ,0.0167286,0.01640004,-2.298248,-0.000957072,-0.00727006,-0.03055634,0.5442191,229,33,0,190,0, t,444446963,-696013645
10/6/2020, 12:22:49 ,0.02596802,-0.02143688,-2.317304,-0.0606357,-0.06282209,-0.03030856,0.5149927,227,33,0,190,0, t,444446932,-696013728
10/6/2020, 12:22:50 ,0.05489367,-0.01025416,-2.332963,-0.01864018,-0.01775477,-0.00342384,0.5169378,226,33,0,190,0, t,444446914,-696013767
10/6/2020, 12:22:51 ,0.04718926,-0.005253028,-2.33947,0.03721992,0.1112588,0.01768118,0.4968046,226,33,0,190,0, t,444446899,-696013803
10/6/2020, 12:22:52 ,0.04057593,0.006264567,-2.342907,0.1994599,0.04263559,-0.00467049,0.5099981,225,33,0,190,0, t,444446869,-696013879
10/6/2020, 12:22:53 ,0.01964324,0.02247611,-2.339272,0.180424,0.1258605,0.002379105,0.5007588,225,33,0,190,0, t,444446853,-696013918
10/6/2020, 12:22:54 ,0.01667286,-0.008728199,-2.340996,0.06232974,-0.1554566,-0.02924212,0.5050608,225,33,0,190,0, t,444446827,-696013999
10/6/2020, 12:22:55 ,0.02680491,-0.00093504,-2.366375,0.02405491,0.02731536,-0.002704469,0.492701,224,33,0,190,0, t,444446811,-696014043
10/6/2020, 12:22:56 ,0.04341519,-0.01349669,-2.385108,0.01444655,-0.04264997,-0.04045159,0.5009543,224,33,0,190,0, t,444446793,-696014086
10/6/2020, 12:22:57 ,0.0452548,-0.02068748,-2.415227,0.008485453,0.008912684,-0.02690158,0.5357824,221,33,0,190,0, t,444446753,-696014172
10/6/2020, 12:22:58 ,0.03323503,-0.008688405,-2.43118,0.02467528,-0.1686972,-0.0221659,0.5582387,220,33,0,190,0, t,444446732,-696014218
10/6/2020, 12:22:59 ,0.04851554,-0.005093675,-2.433244,-0.02369472,-0.1748091,-0.00640531,0.5751448,220,33,0,190,0, t,444446711,-696014254
10/6/2020, 12:23:00 ,0.05301926,-0.005075324,-2.432718,0.1450182,-0.08203511,-0.03067985,0.572069,220,33,0,190,0, t,444446689,-696014291
10/6/2020, 12:23:01 ,0.02919849,-0.007386506,-2.432598,0.2113197,-0.1373513,-0.07131106,0.5292577,221,33,0,190,0, t,444446647,-696014361
10/6/2020, 12:23:02 ,-0.001962017,-0.01661816,-2.407285,-0.06999642,0.02469782,0.02633466,0.5415346,222,33,0,190,0, t,444446627,-696014396
10/6/2020, 12:23:03 ,0.02637579,-0.0370765,-2.396823,-0.06480179,-0.106932,-0.007134998,0.5120937,222,33,0,190,0, t,444446589,-696014465
10/6/2020, 12:23:04 ,0.02769024,-0.01452187,-2.403043,0.006947096,-0.07466064,-0.009590385,0.5493269,222,33,0,190,0, t,444446570,-696014500
10/6/2020, 12:23:05 ,0.03527871,-0.02543708,-2.409091,0.01629007,-0.05575199,-0.01014897,0.5236107,221,33,0,190,0, t,444446526,-696014571
10/6/2020, 12:23:06 ,0.03280167,-0.01594523,-2.408947,-0.05859711,-0.07003215,0.02075845,0.4988551,221,33,0,190,0, t,444446508,-696014601
10/6/2020, 12:23:07 ,0.02454571,-0.00487322,-2.40728,-0.001342279,0.04294909,-0.008266889,0.4894747,221,33,0,190,0, t,444446490,-696014637
10/6/2020, 12:23:08 ,0.006035918,0.009562381,-2.387643,0.08298132,0.1225818,0.002924515,0.4938853,222,33,0,190,0, t,444446447,-696014726
10/6/2020, 12:23:09 ,0.04026278,-0.02334586,-2.40555,-0.0194228,-0.005000197,0.003992336,0.448716,222,33,0,190,0, t,444446426,-696014771
10/6/2020, 12:23:10 ,0.01779426,-0.009841666,-2.408774,-0.02208193,-0.0912334,-0.03752907,0.4536456,222,33,0,190,0, t,444446401,-696014815
10/6/2020, 12:23:11 ,0.01325029,0.001727894,-2.406024,0.04569993,0.1334777,0.03782805,0.4865084,222,33,0,190,0, t,444446373,-696014864
10/6/2020, 12:23:12 ,0.004331084,-0.005813919,-2.386735,-0.09885817,0.1591911,0.04890944,0.5112612,222,33,0,190,0, t,444446346,-696014914
10/6/2020, 12:23:13 ,0.01214892,-0.01406897,-2.383811,-0.0352082,0.009086512,0.02132668,0.5255339,223,33,0,190,0, t,444446319,-696014969
10/6/2020, 12:23:14 ,0.007966602,-0.01638505,-2.373656,-0.07051588,-0.04577144,0.008751985,0.5008337,223,33,0,190,0, t,444446288,-696015024
10/6/2020, 12:23:15 ,0.02873486,-0.008854397,-2.365982,0.173501,0.01089683,-0.01921613,0.5608177,224,33,0,190,0, t,444446240,-696015136
10/6/2020, 12:23:16 ,0.05794438,-0.01474349,-2.377648,0.05583094,-0.009436488,-0.006932526,0.5248833,224,33,0,190,0, t,444446240,-696015136
10/6/2020, 12:23:17 ,0.009334933,0.001694433,-2.382077,-0.01997232,0.05611398,-0.03356665,0.5319169,223,33,0,190,0, t,444446195,-696015228
10/6/2020, 12:23:18 ,0.01204839,-0.01887395,-2.395648,-0.1058597,0.08147789,0.003252594,0.5245773,223,33,0,190,0, t,444446170,-696015279
10/6/2020, 12:23:19 ,0.03351437,-0.000231039,-2.395188,0.09396175,-0.01853874,0.01022392,0.5206602,222,33,0,190,0, t,444446145,-696015323
10/6/2020, 12:23:20 ,0.0209242,-0.004955843,-2.390914,0.02379573,-0.03616098,0.002564841,0.5206065,222,33,0,190,0, t,444446120,-696015368
10/6/2020, 12:23:21 ,0.02708223,-0.01358541,-2.38451,-0.09297094,0.08994213,0.0272941,0.5027913,223,33,0,190,0, t,444446095,-696015410
10/6/2020, 12:23:22 ,0.01551591,-0.02693165,-2.3787,-0.01391356,-0.1104979,0.01555244,0.5247161,223,33,0,190,0, t,444446070,-696015456
10/6/2020, 12:23:23 ,0.03197402,-0.0141025,-2.368133,-0.03289031,-0.1773736,-0.003011681,0.5098352,223,33,0,190,0, t,444446047,-696015503
10/6/2020, 12:23:24 ,0.02340438,-0.01631418,-2.357485,0.03710041,0.05427895,-0.002680375,0.492662,224,33,0,190,0, t,444446023,-696015550
10/6/2020, 12:23:25 ,0.01782618,-0.01117655,-2.346788,0.005703438,-0.02373401,0.02860953,0.4891846,225,33,0,190,0, t,444445996,-696015598
10/6/2020, 12:23:26 ,0.0567216,-0.01342561,-2.347795,0.08104661,-0.04289975,-0.0123903,0.4976308,225,33,0,190,0, t,444445954,-696015703
10/6/2020, 12:23:27 ,0.003268184,-0.01213986,-2.348531,0.01714385,-0.09919325,-0.01814362,0.5505869,225,33,0,190,0, t,444445931,-696015762
10/6/2020, 12:23:28 ,0.006061953,-0.01851447,-2.348726,0.08655505,0.01663874,-0.02407091,0.5220981,225,33,0,190,0, t,444445917,-696015813
10/6/2020, 12:23:29 ,0.02947129,-0.003225192,-2.348193,-0.05908788,-0.1199877,0.005051727,0.5425027,225,33,0,190,0, t,444445890,-696015909
10/6/2020, 12:23:30 ,0.01725062,-0.01273471,-2.370365,-0.0548487,0.03265648,-0.01807441,0.5268906,224,33,0,190,0, t,444445881,-696015952
10/6/2020, 12:23:31 ,0.02959378,-0.009244859,-2.402883,-0.06893045,0.0212564,-0.008652264,0.5160794,223,33,0,190,0, t,444445867,-696015988
10/6/2020, 12:23:32 ,0.0458062,0.0119134,-2.429901,0.06037699,0.1550988,-0.03197828,0.5559439,220,33,0,190,0, t,444445839,-696016066
10/6/2020, 12:23:33 ,0.01346715,-0.003051374,-2.453006,0.04103392,0.05354283,-0.01943607,0.4965057,220,33,0,190,0, t,444445824,-696016101
10/6/2020, 12:23:34 ,0.0189528,-0.01521873,-2.464396,-0.09412508,-0.004795905,0.01507475,0.4965831,218,33,0,190,0, t,444445809,-696016138
10/6/2020, 12:23:35 ,0.0130559,-0.01400797,-2.456301,-0.03643027,0.01232128,0.01382064,0.4921676,219,33,0,190,0, t,444445774,-696016215
10/6/2020, 12:23:36 ,0.04205972,-0.01449039,-2.43109,-0.07167815,0.02062899,0.01124246,0.4970823,220,33,0,190,0, t,444445735,-696016292
10/6/2020, 12:23:37 ,0.007921267,-0.008816399,-2.43401,-0.08908454,0.008096528,0.01485479,0.5183681,220,33,0,190,0, t,444445735,-696016292
10/6/2020, 12:23:38 ,0.03938615,-0.001918521,-2.452418,-0.01219203,-0.006080977,-0.04079919,0.5266265,219,33,0,190,0, t,444445692,-696016376
10/6/2020, 12:23:39 ,0.01489297,-0.01700914,-2.481957,0.1314376,-0.04100132,-0.03092584,0.5205303,218,33,0,190,0, t,444445671,-696016419
10/6/2020, 12:23:40 ,0.03568224,-0.01763565,-2.484451,-0.05364593,-0.08382384,-0.000343888,0.5211229,217,33,0,190,0, t,444445645,-696016463
10/6/2020, 12:23:41 ,0.03254399,-0.0177769,-2.491946,-0.01499869,-0.1379004,-0.02301522,0.5106385,216,33,0,190,0, t,444445623,-696016504
10/6/2020, 12:23:42 ,0.01945561,-0.003563512,-2.488543,0.05774579,0.01205658,-0.004965699,0.494998,217,33,0,190,0, t,444445572,-696016587
10/6/2020, 12:23:43 ,0.03871053,-0.00601276,-2.483812,0.08704379,-0.09694235,-0.006541129,0.5080823,217,33,0,190,0, t,444445544,-696016630
10/6/2020, 12:23:44 ,0.01307271,0.01319746,-2.478987,0.02888483,0.06574236,0.01848381,0.5051334,217,33,0,190,0, t,444445493,-696016713
10/6/2020, 12:23:45 ,0.02014482,-0.01844163,-2.471481,-0.01207916,-0.02923016,-0.006058763,0.5081007,218,33,0,190,0, t,444445493,-696016713
10/6/2020, 12:23:46 ,0.01626706,-0.01312063,-2.460287,-0.06584835,-0.001810041,0.02669434,0.5195137,218,33,0,190,0, t,444445452,-696016796
10/6/2020, 12:23:47 ,0.01001107,-0.01683049,-2.459753,0.0024565,-0.0363393,0.01436165,0.5266385,219,33,0,190,0, t,444445436,-696016835
10/6/2020, 12:23:48 ,-0.002541605,-0.001934435,-2.454798,-0.1460693,0.1290678,0.02524246,0.5452577,218,33,0,190,0, t,444445417,-696016874
10/6/2020, 12:23:49 ,0.0281174,-0.01187043,-2.465414,-0.0197042,-0.07596258,-0.004156789,0.5146829,218,33,0,190,0, t,444445381,-696016946
10/6/2020, 12:23:50 ,0.04482986,0.000882722,-2.473847,0.08580294,-0.0162487,-0.01858079,0.5105013,218,33,0,190,0, t,444445363,-696016975
10/6/2020, 12:23:51 ,0.02410332,-0.005554918,-2.48905,0.1134254,-0.01146478,-0.0113869,0.5082352,217,33,0,190,0, t,444445324,-696017043
10/6/2020, 12:23:52 ,0.02901262,-0.01465324,-2.485326,0.00489236,0.06779653,0.02498638,0.5129615,217,33,0,190,0, t,444445304,-696017077
10/6/2020, 12:23:53 ,0.02670354,-0.01733788,-2.467815,-0.04096415,-0.2230594,0.02061508,0.4947788,217,33,0,190,0, t,444445286,-696017113
10/6/2020, 12:23:54 ,0.01661072,-0.02361652,-2.447306,-0.2072811,-0.1280094,0.01330451,0.491867,219,33,0,190,0, t,444445246,-696017188
10/6/2020, 12:23:55 ,0.01681494,-0.01338126,-2.430402,0.1015884,0.03539814,-0.000865088,0.4973479,220,33,0,190,0, t,444445227,-696017232
10/6/2020, 12:23:56 ,0.03133337,-0.01636924,-2.426561,-0.1047865,-0.1022806,0.01229725,0.5675064,220,33,0,190,0, t,444445208,-696017284
10/6/2020, 12:23:57 ,0.02359975,0.00587032,-2.452751,0.0235019,0.01328119,0.01967859,0.5361315,220,33,0,190,0, t,444445167,-696017370
10/6/2020, 12:23:58 ,0.01516845,0.001277734,-2.48013,0.05048411,0.08382333,-0.02709197,0.5126793,218,33,0,190,0, t,444445146,-696017410
10/6/2020, 12:23:59 ,0.04159058,-0.02505313,-2.497549,0.02090811,-0.04661169,-0.03665943,0.4820713,217,33,0,190,0, t,444445127,-696017452
10/6/2020, 12:24:00 ,0.04888474,0.002980154,-2.51891,0.1149263,-0.08306906,-0.008431149,0.4906486,216,33,0,190,0, t,444445106,-696017496
10/6/2020, 12:24:01 ,0.03670662,0.003013864,-2.525642,-0.01458338,0.03293545,0.02294212,0.4835046,215,33,0,190,0, t,444445064,-696017572
10/6/2020, 12:24:02 ,0.04167148,0.000359017,-2.514129,0.06153038,0.009298366,0.012028,0.5174115,215,33,0,190,0, t,444445039,-696017617
10/6/2020, 12:24:03 ,0.01095332,-0.0007471,-2.510296,-0.0854981,0.06007216,0.011728,0.5417899,215,33,0,190,0, t,444445021,-696017665
10/6/2020, 12:24:04 ,0.0523315,-0.00676287,-2.504183,0.1122255,-0.005134142,-0.02401252,0.5164744,216,33,0,190,0, t,444445003,-696017714
10/6/2020, 12:24:05 ,0.006162111,0.002393261,-2.50756,-0.07230211,0.04459767,-0.006209369,0.5643626,216,33,0,190,0, t,444444987,-696017760
10/6/2020, 12:24:06 ,0.03894069,-0.01890808,-2.520423,0.05447474,-0.004561769,-0.02578899,0.520382,215,33,0,190,0, t,444444947,-696017842
10/6/2020, 12:24:07 ,0.01839125,-0.001249913,-2.539475,-0.01765199,0.01292277,-0.03336825,0.5298935,214,33,0,190,0, t,444444929,-696017884
10/6/2020, 12:24:08 ,0.02942855,-0.01793827,-2.560517,-0.09655573,0.008826725,-0.006864288,0.5210599,214,33,0,190,0, t,444444907,-696017928
10/6/2020, 12:24:09 ,0.04107601,-0.01360131,-2.577548,0.07014431,-0.02063204,-0.0167435,0.5206676,212,33,0,190,0, t,444444885,-696017970
10/6/2020, 12:24:10 ,0.02018035,-0.0161209,-2.582875,0.02181611,-0.06166656,-0.01677026,0.5080637,212,33,0,190,0, t,444444860,-696018006
10/6/2020, 12:24:11 ,0.03063744,0.001089357,-2.590261,0.01941331,0.006892886,-0.001161892,0.4979167,212,33,0,190,0, t,444444836,-696018046
10/6/2020, 12:24:12 ,0.02759116,-0.005355548,-2.578844,0.004749956,-0.02218126,0.008064672,0.4796878,212,33,0,190,0, t,444444787,-696018133
10/6/2020, 12:24:13 ,0.02250817,-0.002412789,-2.564975,-0.04354725,-0.006156669,0.0040844,0.4648177,212,33,0,190,0, t,444444763,-696018175
10/6/2020, 12:24:14 ,0.03314393,0.01144055,-2.585446,0.03814908,0.047393,-0.02267612,0.49405,212,33,0,190,0, t,444444737,-696018219
10/6/2020, 12:24:15 ,0.01508402,-0.01207009,-2.597038,-0.07621654,-0.01872598,-0.02581354,0.5416161,211,33,0,190,0, t,444444709,-696018262
10/6/2020, 12:24:16 ,0.03005314,0.0099755,-2.603034,0.04782091,0.0741787,-0.01970862,0.5863131,210,33,0,190,0, t,444444646,-696018340
10/6/2020, 12:24:17 ,0.0465671,0.004550815,-2.590985,0.02781229,0.004285099,0.001593533,0.5685334,211,33,0,190,0, t,444444646,-696018340
10/6/2020, 12:24:18 ,0.005127218,0.009795465,-2.564711,0.02196672,0.1581478,0.05111693,0.5232838,213,33,0,190,0, t,444444618,-696018375
10/6/2020, 12:24:19 ,0.03422091,-0.02166232,-2.532132,-0.004681753,-0.1230193,0.007402169,0.5071507,213,33,0,190,0, t,444444569,-696018445
10/6/2020, 12:24:20 ,0.03164587,-0.01096031,-2.49702,-0.01442282,0.1217446,0.02809081,0.5066609,216,33,0,190,0, t,444444547,-696018480
10/6/2020, 12:24:21 ,0.02419449,-0.007087789,-2.479883,-0.1142978,-0.05115006,0.04922494,0.5288386,217,33,0,190,0, t,444444524,-696018519
10/6/2020, 12:24:22 ,0.02691537,-0.02150196,-2.487583,-0.004820415,-0.05553626,-0.0148932,0.5246094,217,33,0,190,0, t,444444500,-696018555
10/6/2020, 12:24:23 ,0.0243154,-0.007000469,-2.475044,0.02549777,-0.1669779,0.01979882,0.5510653,217,33,0,190,0, t,444444474,-696018589
10/6/2020, 12:24:24 ,0.01565216,-0.009474371,-2.451407,0.00504599,0.008472299,0.01730407,0.5448176,218,33,0,190,0, t,444444445,-696018630
10/6/2020, 12:24:25 ,0.03008051,-0.02033412,-2.433177,0.00379277,-0.0822606,0.03143694,0.5486479,219,33,0,190,0, t,444444415,-696018675
10/6/2020, 12:24:26 ,0.03815249,-0.002518758,-2.393975,-0.01441135,-0.01576626,0.04072697,0.5239442,222,33,0,190,0, t,444444357,-696018757
10/6/2020, 12:24:27 ,0.008880077,-0.02932832,-2.344373,-0.09711154,-0.08113948,0.03244091,0.5114349,224,33,0,190,0, t,444444333,-696018803
10/6/2020, 12:24:28 ,0.02906999,-0.004439585,-2.312572,-0.1207766,-0.1227731,0.05221055,0.5135056,225,33,0,190,0, t,444444305,-696018850
10/6/2020, 12:24:29 ,0.008004298,-0.02256038,-2.262923,0.004767551,0.003056185,0.0234421,0.5236642,229,33,0,190,0, t,444444281,-696018903
10/6/2020, 12:24:30 ,0.0314371,-0.005020007,-2.238879,-0.006634619,-0.05232409,0.03581479,0.513485,231,33,0,190,0, t,444444259,-696018955
10/6/2020, 12:24:31 ,0.02312432,-0.01566232,-2.213806,-0.1302922,0.04793569,0.004501755,0.5600601,233,33,0,190,0, t,444444216,-696019063
10/6/2020, 12:24:32 ,0.01776291,-0.01279484,-2.214663,-0.0136065,-0.02532237,0.01287385,0.5561786,233,33,0,190,0, t,444444204,-696019121
10/6/2020, 12:24:33 ,0.02211183,-0.006179467,-2.234552,0.0445107,-0.03244204,-0.05072965,0.5309972,231,33,0,190,0, t,444444195,-696019177
10/6/2020, 12:24:34 ,0.00390641,-0.00836819,-2.281723,-0.04405703,-0.08969827,-0.04996806,0.5379791,230,33,0,190,0, t,444444188,-696019222
10/6/2020, 12:24:35 ,0.02288094,-0.001146261,-2.32348,0.001072297,0.1074115,-0.02670139,0.4818778,227,33,0,190,0, t,444444178,-696019271
10/6/2020, 12:24:36 ,0.02666696,-0.01362606,-2.341591,0.00471912,-0.04532818,-0.007652892,0.4891566,225,33,0,190,0, t,444444149,-696019369
10/6/2020, 12:24:37 ,0.04734211,-0.003532846,-2.396533,-0.0140717,-0.002049124,-0.04062519,0.5161184,224,33,0,190,0, t,444444130,-696019415
10/6/2020, 12:24:38 ,0.009972779,-0.005286299,-2.411303,0.01524324,-0.01936884,-0.06374671,0.5221186,222,33,0,190,0, t,444444113,-696019457
10/6/2020, 12:24:39 ,0.01844838,-0.003952701,-2.433566,-0.01811777,0.003602904,-0.01411414,0.5067499,221,33,0,190,0, t,444444093,-696019496
10/6/2020, 12:24:40 ,0.005106129,0.000292119,-2.427634,0.02906081,0.04080035,0.04818346,0.473229,220,33,0,190,0, t,444444057,-696019581
10/6/2020, 12:24:41 ,0.012788,0.01174679,-2.395494,0.09162305,-0.003653682,0.02706423,0.4709486,221,33,0,190,0, t,444444041,-696019629
10/6/2020, 12:24:42 ,0.03614605,-0.01856963,-2.384458,-0.0528139,-0.008630708,0.0200377,0.6125978,224,33,0,190,0, t,444444029,-696019683
10/6/2020, 12:24:43 ,0.03043458,0.01249239,-2.366492,-0.05848539,0.06371021,0.007555251,0.6125978,224,33,0,190,0, t,444444018,-696019743
10/6/2020, 12:24:44 ,0.0442929,0.001074862,-2.40321,0.03787403,-0.0436597,-0.06534937,0.5918522,223,33,0,190,0, t,444444005,-696019795
10/6/2020, 12:24:45 ,0.04016695,-0.0123889,-2.474668,-0.04529721,-0.06597484,-0.05407823,0.6091436,220,33,0,190,0, t,444443991,-696019857
10/6/2020, 12:24:46 ,0.04988083,-0.002598051,-2.549172,-0.009115037,0.06021799,-0.05382307,0.5997738,215,33,0,190,0, t,444443976,-696019918
10/6/2020, 12:24:47 ,0.01463609,0.005441904,-2.587505,-0.01876851,0.04538772,-0.06123041,0.5634412,213,33,0,190,0, t,444443945,-696020035
10/6/2020, 12:24:48 ,0.03184254,0.01199335,-2.693966,0.03779157,-0.03346734,-0.1061529,0.5094939,208,33,0,190,0, t,444443928,-696020088
10/6/2020, 12:24:49 ,0.02209646,0.01153722,-2.758736,-0.02833867,0.02206707,-0.07375913,0.4941473,205,33,0,190,0, t,444443908,-696020141
10/6/2020, 12:24:50 ,0.0314969,0.001674615,-2.8593,-0.05062622,-0.02043956,-0.03801212,0.4561349,198,33,0,190,0, t,444443877,-696020184
10/6/2020, 12:24:51 ,0.02813147,0.006532166,-2.888064,-0.01482605,-0.03721892,-0.04031898,0.4917572,194,33,0,190,0, t,444443807,-696020240
10/6/2020, 12:24:52 ,0.02828962,0.001207974,-2.896099,0.0145598,0.003201805,-0.008142619,0.5258158,194,33,0,190,0, t,444443768,-696020260
10/6/2020, 12:24:53 ,0.01914257,0.005037799,-2.852508,-0.01081975,0.07848436,0.05728214,0.5451127,194,33,0,190,0, t,444443723,-696020277
10/6/2020, 12:24:54 ,0.04194523,-0.01480008,-2.781407,0.05060299,0.002496223,0.07238384,0.5483925,198,33,0,190,0, t,444443681,-696020293
10/6/2020, 12:24:55 ,0.01165844,-0.0135803,-2.741841,-0.01828904,-0.07408751,0.06812293,0.5735571,202,33,0,190,0, t,444443605,-696020333
10/6/2020, 12:24:56 ,0.02823549,-0.01283866,-2.656782,0.02923759,-0.07704061,0.03168246,0.5921444,206,33,0,190,0, t,444443569,-696020356
10/6/2020, 12:24:57 ,0.03865053,-0.03562487,-2.600846,-0.06081432,-0.1672668,0.01920894,0.5817283,210,33,0,190,0, t,444443538,-696020378
10/6/2020, 12:24:58 ,0.04392054,-0.007958826,-2.538477,-0.04943631,-0.04588353,0.05479705,0.5546354,214,33,0,190,0, t,444443488,-696020440
10/6/2020, 12:24:59 ,0.03776666,-0.000967942,-2.493089,0.2070412,-0.04752469,0.008905312,0.5567198,215,33,0,190,0, t,444443463,-696020466
10/6/2020, 12:25:00 ,0.02915909,0.008709323,-2.452912,0.1938404,-0.05757939,-0.00562406,0.5573093,218,33,0,190,0, t,444443439,-696020501
10/6/2020, 12:25:01 ,0.0123209,-0.01716664,-2.426296,-0.006568504,0.1307901,0.09071165,0.5538044,219,33,0,190,0, t,444443415,-696020538
10/6/2020, 12:25:02 ,0.03266548,-0.01458474,-2.403669,-0.08998944,-0.1114067,0.03723128,0.5793668,222,33,0,190,0, t,444443370,-696020631
10/6/2020, 12:25:03 ,-0.005002864,-0.01241869,-2.336339,-0.03572232,-0.05225606,0.01901141,0.5749766,225,33,0,190,0, t,444443346,-696020684
10/6/2020, 12:25:04 ,0.02461389,-0.01148075,-2.327887,-0.128124,-0.01261479,0.03821749,0.5419161,226,33,0,190,0, t,444443306,-696020787
10/6/2020, 12:25:05 ,0.0200533,-0.01535043,-2.314006,0.01614789,0.0301796,0.01747648,0.5251476,227,33,0,190,0, t,444443285,-696020836
10/6/2020, 12:25:06 ,0.03616819,-0.004893459,-2.294661,0.06069317,0.009847097,0.01463627,0.5097088,227,33,0,190,0, t,444443269,-696020883
10/6/2020, 12:25:07 ,0.03114916,-0.005629219,-2.289981,0.06988328,-0.03323919,-0.01020112,0.5192533,228,33,0,190,0, t,444443254,-696020936
10/6/2020, 12:25:08 ,0.02802337,-0.009886421,-2.288554,0.01470527,0.001444213,-0.004449432,0.4995204,228,33,0,190,0, t,444443238,-696021024
10/6/2020, 12:25:09 ,0.0253501,5.85E-05,-2.324431,0.001789201,0.004818963,-0.01631281,0.4962431,227,33,0,190,0, t,444443228,-696021061
10/6/2020, 12:25:10 ,0.02851384,-0.001158249,-2.342802,0.09846907,-0.09990034,-0.03851494,0.4863577,225,33,0,190,0, t,444443207,-696021132
10/6/2020, 12:25:11 ,0.01752551,-0.02259001,-2.352106,-0.1075927,-0.138803,0.02306463,0.4777454,225,33,0,190,0, t,444443194,-696021166
10/6/2020, 12:25:12 ,0.02466761,-0.02044218,-2.347131,-0.0249855,-0.03458374,-0.006777958,0.4874977,225,33,0,190,0, t,444443183,-696021199
10/6/2020, 12:25:13 ,0.03653603,-0.006931089,-2.360019,0.120905,0.04448054,-0.02236268,0.4953696,225,33,0,190,0, t,444443172,-696021240
10/6/2020, 12:25:14 ,0.03904802,0.01489282,-2.362935,0.1004115,0.09256344,-0.004054979,0.5092377,224,33,0,190,0, t,444443147,-696021327
10/6/2020, 12:25:15 ,0.04845775,-0.001595926,-2.381758,0.1426902,-0.02618339,-0.0399718,0.4832464,224,33,0,190,0, t,444443137,-696021375
10/6/2020, 12:25:16 ,0.04419695,-0.01164816,-2.4202,-0.02358678,0.03582062,-0.01609719,0.5216041,222,33,0,190,0, t,444443122,-696021424
10/6/2020, 12:25:17 ,0.02350808,-0.005184691,-2.441549,-0.02877453,0.001839679,0.000859942,0.5416969,220,33,0,190,0, t,444443080,-696021520
10/6/2020, 12:25:18 ,0.02353432,-0.00036832,-2.452068,0.01117561,-0.01094178,-0.03625401,0.5159749,220,33,0,190,0, t,444443059,-696021562
10/6/2020, 12:25:19 ,0.03675227,-0.006257091,-2.467614,0.00361291,-0.08023446,-0.01180721,0.4800403,218,33,0,190,0, t,444443041,-696021606
10/6/2020, 12:25:20 ,0.002085067,0.001223855,-2.455205,-0.111863,0.1480574,0.0650836,0.5269021,218,33,0,190,0, t,444443020,-696021656
10/6/2020, 12:25:21 ,0.04533278,-0.01917648,-2.43889,0.03548998,0.01973763,0.02629271,0.5302727,220,33,0,190,0, t,444442982,-696021775
10/6/2020, 12:25:22 ,0.02235636,0.001853134,-2.412285,0.08135752,0.02552284,0.0151667,0.6087471,221,33,0,190,0, t,444442968,-696021846
10/6/2020, 12:25:23 ,0.0110451,-0.005092535,-2.436075,0.01332116,-0.03216139,-0.05131081,0.6236559,222,33,0,190,0, t,444442952,-696021919
10/6/2020, 12:25:24 ,0.04624962,-0.01383568,-2.475436,0.01412005,-0.03284451,-0.0761061,0.6086364,220,33,0,190,0, t,444442939,-696021980
10/6/2020, 12:25:25 ,0.01544921,0.001063071,-2.592238,-0.02215896,-0.0160408,-0.08980248,0.5431879,214,33,0,190,0, t,444442923,-696022037
10/6/2020, 12:25:26 ,0.03136194,0.008497924,-2.654042,-0.09168076,0.1045551,-0.05818138,0.4767071,207,33,0,190,0, t,444442877,-696022122
10/6/2020, 12:25:27 ,0.04639613,0.003722411,-2.70975,0.1314348,-0.1830308,-0.03596715,0.4792636,204,33,0,190,0, t,444442852,-696022152
10/6/2020, 12:25:28 ,0.0187588,-0.007829163,-2.703487,-0.05280172,-0.05020436,-0.003558291,0.498305,205,33,0,190,0, t,444442828,-696022187
10/6/2020, 12:25:29 ,0.01661145,0.01082487,-2.699076,-0.04823716,-0.01082162,0.000613909,0.4924609,205,33,0,190,0, t,444442803,-696022218
10/6/2020, 12:25:30 ,0.02280071,-0.005578123,-2.697178,-0.06513395,-0.05726194,0.002763121,0.5117291,205,33,0,190,0, t,444442778,-696022250
10/6/2020, 12:25:31 ,0.05898204,-0.002083156,-2.686716,0.145572,-0.03605855,-0.01182814,0.507323,205,33,0,190,0, t,444442752,-696022286
10/6/2020, 12:25:32 ,0.03141363,-0.005791809,-2.66471,0.06138822,-0.07007944,0.01726151,0.5471938,207,33,0,190,0, t,444442724,-696022325
10/6/2020, 12:25:33 ,0.02464939,0.005005646,-2.655404,0.06951813,0.04908545,0.005090052,0.5552804,207,33,0,190,0, t,444442660,-696022412
10/6/2020, 12:25:34 ,0.0360456,-0.01264488,-2.655869,0.0394614,0.03289344,-0.005612905,0.5578842,207,33,0,190,0, t,444442628,-696022454
10/6/2020, 12:25:35 ,0.04310744,-0.00175811,-2.657838,-0.01393757,-0.02434448,-0.02101286,0.5507374,207,33,0,190,0, t,444442599,-696022498
10/6/2020, 12:25:36 ,0.01594544,-0.004506014,-2.654269,0.04809274,-0.02712902,-0.01704915,0.5740579,207,33,0,190,0, t,444442566,-696022547
10/6/2020, 12:25:37 ,0.02209171,-0.006607626,-2.653371,0.03410471,0.01006309,0.008493898,0.5745679,208,33,0,190,0, t,444442528,-696022595
10/6/2020, 12:25:38 ,0.02687692,-0.008272178,-2.649684,0.01067615,0.0125825,-0.01102818,0.5727551,207,33,0,190,0, t,444442490,-696022646
10/6/2020, 12:25:39 ,0.04545266,-0.01116797,-2.632508,0.04983239,-0.0929588,0.006322319,0.5411266,208,33,0,190,0, t,444442458,-696022698
10/6/2020, 12:25:40 ,0.01632026,-0.02127672,-2.619236,-0.02319692,-0.1017987,-0.005762018,0.5438759,209,33,0,190,0, t,444442427,-696022746
10/6/2020, 12:25:41 ,0.02560839,-0.01059311,-2.601173,-0.07052686,-0.01742648,0.02876005,0.5275981,209,33,0,190,0, t,444442398,-696022792
10/6/2020, 12:25:42 ,0.03153117,-0.006531525,-2.560786,-0.008192604,-0.0614923,0.02696725,0.499493,211,33,0,190,0, t,444442369,-696022832
10/6/2020, 12:25:43 ,0.01817413,0.003260531,-2.530173,-0.003217058,0.01476568,0.07092806,0.5439884,215,33,0,190,0, t,444442315,-696022923
10/6/2020, 12:25:44 ,0.03731499,-0.009773243,-2.475715,0.0200172,0.03923443,0.02149088,0.5152014,217,33,0,190,0, t,444442295,-696022973
10/6/2020, 12:25:45 ,0.01774137,-0.001843952,-2.476168,-0.004640199,-0.007397317,-0.008929972,0.5315092,218,33,0,190,0, t,444442272,-696023022
10/6/2020, 12:25:46 ,0.03117158,0.000245631,-2.481884,-0.04092303,0.09159192,0.003646309,0.5273936,218,33,0,190,0, t,444442252,-696023063
10/6/2020, 12:25:47 ,0.03804465,-0.01132073,-2.493026,-0.05267564,0.03349959,0.000348783,0.5302963,217,33,0,190,0, t,444442225,-696023110
10/6/2020, 12:25:48 ,0.02211634,-0.01154592,-2.4941,0.03828754,-0.03472937,-0.02372923,0.5527519,217,33,0,190,0, t,444442201,-696023155
10/6/2020, 12:25:49 ,0.02462939,0.008194532,-2.490626,0.04275423,0.09482782,0.01304599,0.4715897,217,33,0,190,0, t,444442183,-696023186
10/6/2020, 12:25:50 ,0.01221634,0.00336647,-2.485498,-0.003042274,0.08526185,0.01509297,0.4489893,217,33,0,190,0, t,444442168,-696023211
10/6/2020, 12:25:51 ,0.01689611,0.007021375,-2.478203,-0.0424129,0.1000148,0.02361832,0.4111236,217,33,0,190,0, t,444442153,-696023240
10/6/2020, 12:25:52 ,0.0132082,0.01059768,-2.46868,0.0262196,0.03835954,0.04068436,0.414596,218,33,0,190,0, t,444442123,-696023277
10/6/2020, 12:25:53 ,0.03125273,0.01270689,-2.430826,0.001287003,0.06653066,0.05536415,0.4853328,219,33,0,190,0, t,444442090,-696023320
10/6/2020, 12:25:54 ,0.04042225,-0.000400364,-2.409136,0.06251864,-0.04137973,0.0117068,0.5774219,221,33,0,190,0, t,444442012,-696023420
10/6/2020, 12:25:55 ,0.01937388,-0.01353191,-2.363915,0.00173235,-0.07512411,0.02370932,0.5676128,223,33,0,190,0, t,444442012,-696023420
10/6/2020, 12:25:56 ,0.0197725,-0.005600762,-2.343739,0.01487872,-0.1121874,0.02216856,0.558227,225,33,0,190,0, t,444441944,-696023497
10/6/2020, 12:25:57 ,0.001631547,-0.01496676,-2.295786,-0.02076014,-0.009843977,0.0305957,0.5467583,227,33,0,190,0, t,444441920,-696023536
10/6/2020, 12:25:58 ,0.01293788,-0.01814854,-2.264377,0.05068356,0.06879119,0.01539362,0.5225462,229,33,0,190,0, t,444441896,-696023576
10/6/2020, 12:25:59 ,0.04075448,-0.01169793,-2.237689,0.006834213,-0.05324896,0.02720329,0.5302447,230,33,0,190,0, t,444441873,-696023612
10/6/2020, 12:26:00 ,0.01310482,-0.009869147,-2.207175,-0.08937527,0.007184333,0.05041698,0.5386235,232,33,0,190,0, t,444441852,-696023655
10/6/2020, 12:26:01 ,0.03178392,-0.006212994,-2.193377,0.006566857,0.08238585,0.04187226,0.5159687,234,33,0,190,0, t,444441830,-696023745
10/6/2020, 12:26:02 ,0.01572138,-0.01582374,-2.163342,-0.08486567,0.01572847,-0.01812405,0.4948581,235,33,0,190,0, t,444441821,-696023792
10/6/2020, 12:26:03 ,0.027003,-0.007277094,-2.165698,0.101002,-0.003230238,0.007633748,0.5024896,236,33,0,190,0, t,444441810,-696023848
10/6/2020, 12:26:04 ,0.01813394,-0.01048461,-2.195917,0.06370104,-0.05437338,-0.05350932,0.5544422,235,33,0,190,0, t,444441801,-696023903
10/6/2020, 12:26:05 ,0.04018756,0.000603255,-2.222795,-0.01059019,0.08428698,-0.02976773,0.5495477,234,33,0,190,0, t,444441789,-696023957
10/6/2020, 12:26:06 ,0.02162065,0.01492271,-2.270428,-0.05968747,0.004019597,-0.000846695,0.561816,231,33,0,190,0, t,444441778,-696024008
10/6/2020, 12:26:07 ,0.03894731,0.000494678,-2.297504,0.005646307,-0.05218116,-0.02404987,0.4463811,228,33,0,190,0, t,444441769,-696024054
10/6/2020, 12:26:08 ,0.03215399,-0.02213369,-2.346375,0.06825269,-0.02867403,-0.05399321,0.4546615,226,33,0,190,0, t,444441758,-696024147
10/6/2020, 12:26:09 ,0.02231991,-0.009905986,-2.390715,0.04906282,0.04314024,-0.03274684,0.478811,224,33,0,190,0, t,444441736,-696024204
10/6/2020, 12:26:10 ,0.01080179,-0.01269698,-2.395142,-0.05969469,-0.1118666,-0.01207069,0.4994768,222,33,0,190,0, t,444441694,-696024314
10/6/2020, 12:26:11 ,0.007715862,-0.01971879,-2.426788,-0.0637816,-0.03478685,-0.03836603,0.5524573,220,33,0,190,0, t,444441671,-696024372
10/6/2020, 12:26:12 ,0.01966865,0.004847229,-2.457066,-0.04786442,-0.026109,-0.03109511,0.5394322,220,33,0,190,0, t,444441644,-696024419
10/6/2020, 12:26:13 ,0.04549983,-0.008521039,-2.476204,0.1023178,-0.009965981,-0.02463317,0.5467915,219,33,0,190,0, t,444441619,-696024467
10/6/2020, 12:26:14 ,0.0197469,0.01099252,-2.495686,0.01402818,-0.08615267,-0.005152438,0.5357181,217,33,0,190,0, t,444441594,-696024513
10/6/2020, 12:26:15 ,0.03104271,-0.003017068,-2.48716,-0.001331092,0.1460492,0.02619655,0.5227014,217,33,0,190,0, t,444441568,-696024555
10/6/2020, 12:26:16 ,0.02382943,-0.01276995,-2.48387,0.0329492,-0.02839253,-0.01691986,0.503143,217,33,0,190,0, t,444441515,-696024640
10/6/2020, 12:26:17 ,0.01142977,-0.01611011,-2.468118,0.005642551,-0.004029691,-0.01362901,0.5323194,218,33,0,190,0, t,444441487,-696024678
10/6/2020, 12:26:18 ,0.02887097,-0.008081093,-2.465375,0.02630608,0.0344676,-0.01116546,0.5356935,218,33,0,190,0, t,444441463,-696024717
10/6/2020, 12:26:19 ,0.01937685,-0.006226886,-2.458208,-0.009255605,-0.02130131,0.01206371,0.5164789,218,33,0,190,0, t,444441440,-696024752
10/6/2020, 12:26:20 ,0.03430142,-0.007885601,-2.446683,0.02606627,0.0161665,0.01102432,0.5058673,219,33,0,190,0, t,444441417,-696024783
10/6/2020, 12:26:21 ,0.02551175,-0.01691769,-2.423669,-0.003953271,-0.006211946,0.01782875,0.497871,221,33,0,190,0, t,444441396,-696024816
10/6/2020, 12:26:22 ,0.01822573,0.001934312,-2.400344,-0.0575548,0.0822663,0.02169981,0.5156464,221,33,0,190,0, t,444441359,-696024889
10/6/2020, 12:26:24 ,0.01131174,-0.006325267,-2.395916,-0.03953856,0.02200405,-0.007261344,0.5131934,222,33,0,190,0, t,444441340,-696024928
10/6/2020, 12:26:25 ,0.02835329,-0.01238011,-2.410627,0.02266555,0.03490357,-0.01661278,0.549531,222,33,0,190,0, t,444441279,-696025063
10/6/2020, 12:26:26 ,0.02390165,0.01363018,-2.419638,0.02266224,0.106029,-0.0121715,0.5399194,221,33,0,190,0, t,444441258,-696025115
10/6/2020, 12:26:27 ,0.02666632,-0.01677794,-2.437084,-0.0732374,-0.01297345,-0.02784372,0.5306295,221,33,0,190,0, t,444441236,-696025165
10/6/2020, 12:26:28 ,0.02512795,-0.001677379,-2.449774,0.02058958,-0.02870722,-0.03947116,0.5147879,220,33,0,190,0, t,444441218,-696025215
10/6/2020, 12:26:29 ,0.02431855,-0.01526443,-2.460743,-0.02590382,-0.03821111,-0.01615359,0.5210971,219,33,0,190,0, t,444441199,-696025264
10/6/2020, 12:26:30 ,0.03751281,-0.007349297,-2.481105,-0.03770174,0.003627148,-0.02324687,0.5128729,218,33,0,190,0, t,444441161,-696025356
10/6/2020, 12:26:31 ,0.02281168,-0.000886839,-2.491997,0.1046774,0.05129568,-0.02608056,0.4819432,217,33,0,190,0, t,444441148,-696025396
10/6/2020, 12:26:32 ,0.01806049,0.0171511,-2.509809,-0.06132493,-0.009492317,-0.01729818,0.5169287,216,33,0,190,0, t,444441132,-696025437
10/6/2020, 12:26:33 ,0.01936018,-0.00331727,-2.515356,0.02023395,0.06686182,0.02031104,0.5120804,216,33,0,190,0, t,444441117,-696025478
10/6/2020, 12:26:34 ,0.01267605,0.005984511,-2.505249,-0.01442682,0.05637174,-0.001801205,0.5411782,216,33,0,190,0, t,444441079,-696025566
10/6/2020, 12:26:35 ,0.0133973,-0.01402277,-2.517735,-0.02307394,0.06023772,0.003812626,0.5164775,216,33,0,190,0, t,444441059,-696025608
10/6/2020, 12:26:36 ,0.03723003,-0.01318568,-2.521105,-0.001167673,-0.06828127,-0.005988865,0.5322112,215,33,0,190,0, t,444441036,-696025653
10/6/2020, 12:26:37 ,0.01638445,0.002578627,-2.525985,-0.05376528,0.02003777,0.01991676,0.5386113,215,33,0,190,0, t,444441010,-696025699
10/6/2020, 12:26:38 ,0.02508331,-0.008881785,-2.531398,0.04164224,-0.08056845,-0.01989019,0.5742198,214,33,0,190,0, t,444440953,-696025802
10/6/2020, 12:26:39 ,0.01831211,-0.006862514,-2.540195,-0.004194468,0.01872557,0.006745839,0.5795889,214,33,0,190,0, t,444440923,-696025849
10/6/2020, 12:26:40 ,0.01811691,0.002829771,-2.545382,0.01182624,-0.02252644,-0.009237499,0.5678148,214,33,0,190,0, t,444440898,-696025894
10/6/2020, 12:26:41 ,0.02073247,0.002313092,-2.541898,-0.02616812,0.02036101,0.01036771,0.5240954,214,33,0,190,0, t,444440875,-696025938
10/6/2020, 12:26:42 ,0.02324972,-0.008351956,-2.548295,-0.09055065,0.05634229,0.01404543,0.5030826,214,33,0,190,0, t,444440834,-696026019
10/6/2020, 12:26:43 ,0.03299633,-0.000946701,-2.509912,0.09491622,-0.0743423,0.003975721,0.5075575,215,33,0,190,0, t,444440819,-696026061
10/6/2020, 12:26:44 ,0.01923344,0.004866574,-2.505468,-0.07982039,0.1555558,0.01830523,0.5552594,216,33,0,190,0, t,444440804,-696026107
10/6/2020, 12:26:45 ,0.02249758,0.001534179,-2.506224,-0.07390049,-0.07586583,-0.000501572,0.5345152,216,33,0,190,0, t,444440770,-696026192
10/6/2020, 12:26:46 ,0.02014279,-0.008136235,-2.530776,0.004507279,-0.07036537,-0.01856023,0.5201133,215,33,0,190,0, t,444440755,-696026235
10/6/2020, 12:26:47 ,0.04006636,-0.01022988,-2.565476,0.03052455,-0.02150263,-0.0388973,0.5423576,214,33,0,190,0, t,444440740,-696026278
10/6/2020, 12:26:48 ,0.02188554,-0.000707764,-2.613801,-0.01246869,-0.04788816,-0.04497023,0.5389953,210,33,0,190,0, t,444440701,-696026358
10/6/2020, 12:26:49 ,0.03021999,-0.007408708,-2.654846,0.05597455,-0.004788721,-0.04144941,0.5506504,207,33,0,190,0, t,444440676,-696026394
10/6/2020, 12:26:50 ,0.03406072,-0.002740428,-2.687226,0.07617433,-0.02149962,-0.03093522,0.5623968,206,33,0,190,0, t,444440650,-696026428
10/6/2020, 12:26:51 ,0.03168269,0.01338916,-2.688878,0.02939457,0.1356796,0.02110999,0.556998,205,33,0,190,0, t,444440593,-696026495
10/6/2020, 12:26:52 ,0.02245003,-9.94E-06,-2.662845,-0.04208411,0.03229181,0.03473055,0.559556,206,33,0,190,0, t,444440564,-696026529
10/6/2020, 12:26:53 ,0.02485477,-0.01951994,-2.652829,0.04755854,-0.01960646,-0.000475287,0.5394611,207,33,0,190,0, t,444440533,-696026559
10/6/2020, 12:26:54 ,0.02636222,0.002796002,-2.611285,0.07206131,0.07567777,0.04143724,0.5250339,210,33,0,190,0, t,444440503,-696026588
10/6/2020, 12:26:55 ,0.01842961,-0.02187657,-2.560743,0.05367973,-0.0288948,0.02341622,0.491287,213,33,0,190,0, t,444440457,-696026657
10/6/2020, 12:26:56 ,0.03138141,0.01052908,-2.511259,0.1223667,-0.003476982,0.02970615,0.5049495,214,33,0,190,0, t,444440432,-696026691
10/6/2020, 12:26:57 ,0.03098348,0.001138244,-2.480562,0.05815763,-0.01760213,0.02126901,0.5188634,217,33,0,190,0, t,444440387,-696026774
10/6/2020, 12:26:58 ,0.0463024,-0.011427,-2.463058,0.06262707,0.02036272,0.01686154,0.5169031,218,33,0,190,0, t,444440368,-696026815
10/6/2020, 12:26:59 ,0.03197438,-0.002369341,-2.417405,0.03259055,0.04575395,0.05557222,0.5138927,219,33,0,190,0, t,444440349,-696026857
10/6/2020, 12:27:00 ,0.02999464,-0.01695899,-2.403984,0.000283176,-0.06650402,0.00975921,0.5537338,221,33,0,190,0, t,444440329,-696026901
10/6/2020, 12:27:01 ,0.02875829,-0.01734777,-2.388808,-0.005073973,-0.05360959,0.03405418,0.5581847,223,33,0,190,0, t,444440294,-696027000
10/6/2020, 12:27:02 ,0.03162974,-0.003759004,-2.386124,0.05202878,0.0317945,-0.026788,0.5950656,223,33,0,190,0, t,444440276,-696027050
10/6/2020, 12:27:03 ,0.01965549,-0.00919842,-2.402111,-0.07985486,-0.08751592,-0.01816597,0.5903313,222,33,0,190,0, t,444440256,-696027097
10/6/2020, 12:27:04 ,0.03205719,0.001350045,-2.420981,0.1036448,0.03634939,-0.03097353,0.5447697,222,33,0,190,0, t,444440238,-696027146
10/6/2020, 12:27:05 ,0.02573314,-0.004392706,-2.477912,0.07563245,0.03411036,-0.07118099,0.514855,220,33,0,190,0, t,444440223,-696027196
10/6/2020, 12:27:06 ,0.03438421,-0.000995532,-2.543425,-0.03167188,-0.02887818,-0.04108495,0.4807776,216,33,0,190,0, t,444440183,-696027289
10/6/2020, 12:27:07 ,0.02912942,0.004676938,-2.584211,-0.04527401,0.0177743,0.008221958,0.4869461,212,33,0,190,0, t,444440161,-696027328
10/6/2020, 12:27:08 ,0.02238871,0.001496956,-2.591763,-0.0835608,0.06884776,0.03192481,0.4858143,211,33,0,190,0, t,444440133,-696027367
10/6/2020, 12:27:09 ,0.01916654,-0.004373837,-2.591896,-0.02015818,-0.04153711,-0.004651219,0.5138168,211,33,0,190,0, t,444440102,-696027408
10/6/2020, 12:27:10 ,0.0124415,-0.00789601,-2.570659,0.006696641,0.07042342,0.03317868,0.5184955,212,33,0,190,0, t,444440047,-696027481
10/6/2020, 12:27:11 ,0.01529889,0.001548182,-2.545874,0.01392363,0.1558569,0.0415862,0.5191181,213,33,0,190,0, t,444440047,-696027481
10/6/2020, 12:27:12 ,0.02420886,-0.02959435,-2.536947,-0.0939737,0.009697866,0.01880359,0.5161467,214,33,0,190,0, t,444439992,-696027566
10/6/2020, 12:27:13 ,0.01096406,-0.007301867,-2.508668,-0.0295641,0.0201972,0.01891505,0.5548168,215,33,0,190,0, t,444439960,-696027610
10/6/2020, 12:27:14 ,0.02134829,-0.01654737,-2.486738,-0.01931176,0.03075358,0.01350325,0.5604629,216,33,0,190,0, t,444439929,-696027652
10/6/2020, 12:27:15 ,0.01681139,-0.02598107,-2.460452,0.07540327,-0.1493528,0.02504519,0.5554957,217,33,0,190,0, t,444439905,-696027696
10/6/2020, 12:27:16 ,0.02479061,-0.01228233,-2.410784,-0.03832864,-0.06534486,0.02372037,0.4952274,220,33,0,190,0, t,444439887,-696027738
10/6/2020, 12:27:17 ,0.02783949,-0.01200916,-2.386444,0.07406925,-0.1418952,0.02144819,0.5248899,223,33,0,190,0, t,444439867,-696027783
10/6/2020, 12:27:18 ,0.02575431,-0.01340475,-2.377774,0.06747396,0.1173607,-0.0185635,0.5511661,223,33,0,190,0, t,444439826,-696027884
10/6/2020, 12:27:19 ,0.01124237,-0.00250968,-2.366326,-0.01501416,0.07070177,0.01195428,0.5462447,224,33,0,190,0, t,444439803,-696027935
10/6/2020, 12:27:20 ,0.03170123,-0.01219922,-2.374497,0.02282981,-0.01589437,-0.01415271,0.5711941,224,33,0,190,0, t,444439780,-696027987
10/6/2020, 12:27:21 ,0.02704296,-0.0218775,-2.39657,0.004345259,-0.02289602,-0.01014621,0.5681382,223,33,0,190,0, t,444439759,-696028036
10/6/2020, 12:27:22 ,0.02392684,-0.006664045,-2.399339,-0.05857804,-0.01051938,0.01069953,0.5207611,222,33,0,190,0, t,444439737,-696028082
10/6/2020, 12:27:23 ,0.02620531,-0.004665893,-2.397507,-0.008175567,0.02060021,0.0146955,0.5081851,222,33,0,190,0, t,444439696,-696028176
10/6/2020, 12:27:24 ,0.02013978,-0.002867725,-2.341689,-0.06214757,0.09675311,0.04200905,0.4840282,224,33,0,190,0, t,444439679,-696028225
10/6/2020, 12:27:25 ,0.02013978,-0.002867725,-2.341689,-0.06214757,0.09675311,0.04200905,0.5144675,225,33,0,190,0, t,444439666,-696028281
10/6/2020, 12:27:26 ,0.01846828,0.00163335,-2.327388,-0.01164863,0.1375159,-0.01034028,0.5113139,227,33,0,190,0, t,444439651,-696028335
10/6/2020, 12:27:27 ,0.02673971,0.01023455,-2.358219,-0.03079149,0.02872146,-0.04111755,0.5378688,226,33,0,190,0, t,444439638,-696028390
10/6/2020, 12:27:28 ,0.02380557,-0.0138579,-2.396694,-0.01665683,0.02715715,-0.06518418,0.5324906,224,33,0,190,0, t,444439625,-696028444
10/6/2020, 12:27:29 ,0.01244949,0.002695587,-2.445831,-0.1001306,0.04988179,-0.03196068,0.5159159,221,33,0,190,0, t,444439596,-696028542
10/6/2020, 12:27:30 ,0.02592073,0.002602369,-2.482495,-0.03760168,0.134102,-0.02098536,0.5242689,219,33,0,190,0, t,444439583,-696028591
10/6/2020, 12:27:31 ,0.02733697,-0.008252949,-2.502054,-0.01591387,-0.06633063,-0.04520311,0.5465847,217,33,0,190,0, t,444439570,-696028641
10/6/2020, 12:27:32 ,0.03830165,0.004385225,-2.564533,-0.02004307,-0.02472568,-0.05349861,0.4683036,213,33,0,190,0, t,444439544,-696028725
10/6/2020, 12:27:33 ,0.02033312,0.01399785,-2.638741,0.00500638,0.06050044,-0.04419232,0.4515781,210,33,0,190,0, t,444439530,-696028762
10/6/2020, 12:27:34 ,0.02740507,0.00457003,-2.67289,0.03242118,0.04369508,-0.02612058,0.4193954,207,33,0,190,0, t,444439515,-696028794
10/6/2020, 12:27:35 ,0.04247849,-0.001997072,-2.692068,0.005760822,-0.06491692,-0.04741847,0.4542326,205,33,0,190,0, t,444439477,-696028853
10/6/2020, 12:27:36 ,0.01917371,0.003147203,-2.688298,-0.06593839,0.02695735,-0.001958574,0.4384949,205,33,0,190,0, t,444439459,-696028880
10/6/2020, 12:27:37 ,0.02400602,0.01024283,-2.668886,-0.04485994,0.03397153,0.04103202,0.4312784,206,33,0,190,0, t,444439440,-696028905
10/6/2020, 12:27:38 ,0.02782066,0.009960763,-2.649516,0.03840648,-0.004084061,0.03910963,0.4374898,208,33,0,190,0, t,444439409,-696028966
10/6/2020, 12:27:39 ,0.01343477,-0.002025504,-2.599669,-0.05718527,-0.02174822,0.01901918,0.5108373,210,33,0,190,0, t,444439394,-696029001
10/6/2020, 12:27:40 ,0.01601507,0.01379763,-2.58936,0.0135399,-0.01585591,0.02062643,0.4778971,211,33,0,190,0, t,444439382,-696029036
10/6/2020, 12:27:41 ,0.02078309,0.01364839,-2.614484,0.01781787,0.005963107,-0.0318921,0.539665,211,33,0,190,0, t,444439350,-696029124
10/6/2020, 12:27:42 ,0.02584333,0.003676999,-2.562186,-0.002129337,-0.06904538,-0.06540666,0.5513585,210,33,0,190,0, t,444439329,-696029163
10/6/2020, 12:27:43 ,0.02387744,0.007817343,-2.585229,0.005027787,-0.01677349,-0.05814264,0.5688662,213,33,0,190,0, t,444439304,-696029205
10/6/2020, 12:27:44 ,0.02281676,-0.000290357,-2.632269,-0.01919514,-0.09730565,-0.04874576,0.5799155,210,33,0,190,0, t,444439271,-696029240
10/6/2020, 12:27:45 ,0.03164982,0.000350583,-2.645497,0.01726852,-0.000921017,-0.01210191,0.6339341,208,33,0,190,0, t,444439230,-696029275
10/6/2020, 12:27:46 ,0.03021661,-0.008935783,-2.635799,0.0291179,-0.02586476,-0.007480704,0.5931671,208,33,0,190,0, t,444439163,-696029324
10/6/2020, 12:27:47 ,0.02758205,-0.01354863,-2.617521,0.03042953,-0.1081698,0.02221463,0.5876982,208,33,0,190,0, t,444439131,-696029339
10/6/2020, 12:27:48 ,0.02688561,-0.004948571,-2.558047,-0.000681441,-0.04872885,0.0680053,0.5674913,211,33,0,190,0, t,444439099,-696029358
10/6/2020, 12:27:49 ,0.03238277,0.000602432,-2.491062,0.08201394,0.04769812,0.06118906,0.4770229,217,33,0,190,0, t,444439070,-696029376
10/6/2020, 12:27:50 ,0.02537396,0.01255001,-2.411045,0.02997685,0.1121084,0.09060369,0.4840573,219,33,0,190,0, t,444439013,-696029423
10/6/2020, 12:27:51 ,0.027887,-0.005698413,-2.3723,-0.06756034,0.05768313,0.05628681,0.4974216,224,33,0,190,0, t,444438962,-696029495
10/6/2020, 12:27:52 ,0.01020272,0.002596453,-2.277101,-0.04814472,-0.06144203,0.0681489,0.4799748,227,33,0,190,0, t,444438962,-696029495
10/6/2020, 12:27:53 ,0.02829407,-0.003057342,-2.225577,-0.03513811,-0.07243823,0.06077191,0.5284925,230,33,0,190,0, t,444438929,-696029584
10/6/2020, 12:27:54 ,0.02067206,0.008384861,-2.196685,-0.04040374,-0.005123068,0.05515291,0.5658896,233,33,0,190,0, t,444438916,-696029628
10/6/2020, 12:27:55 ,0.03172621,-0.00420858,-2.187188,0.01353571,0.02954805,3.85E-05,0.5338078,234,33,0,190,0, t,444438906,-696029674
10/6/2020, 12:27:56 ,0.02817211,-7.62E-05,-2.212818,0.004869218,0.1313799,-0.02966023,0.5601637,234,33,0,190,0, t,444438887,-696029768
10/6/2020, 12:27:57 ,0.01989277,-0.01283984,-2.232557,-0.02289004,-0.1317959,-0.05493879,0.5957351,232,33,0,190,0, t,444438875,-696029818
10/6/2020, 12:27:58 ,0.01740537,-0.007819176,-2.280362,-0.06960596,-0.03568381,-0.04380241,0.5957351,232,33,0,190,0, t,444438861,-696029872
10/6/2020, 12:27:59 ,0.03343746,-0.006161142,-2.34387,0.03774417,-0.03481111,-0.04792265,0.5624546,225,33,0,190,0, t,444438820,-696029981
10/6/2020, 12:28:00 ,0.03998998,0.008094084,-2.425264,0.01262374,0.06529297,-0.04491798,0.5280101,222,33,0,190,0, t,444438801,-696030035
10/6/2020, 12:28:01 ,0.01848954,0.001462776,-2.446716,0.01243411,0.01835163,-0.05150959,0.5325797,221,33,0,190,0, t,444438785,-696030087
10/6/2020, 12:28:02 ,0.02378581,0.0118384,-2.478272,0.01051076,-0.000577119,-0.02175545,0.4323561,218,33,0,190,0, t,444438756,-696030169
10/6/2020, 12:28:03 ,0.04336491,0.005007517,-2.496313,-0.05531494,-0.03180011,-0.02880806,0.3981234,217,33,0,190,0, t,444438742,-696030209
10/6/2020, 12:28:04 ,0.03034868,0.007321823,-2.502233,0.04983049,-0.0412467,-0.01589591,0.4275075,216,33,0,190,0, t,444438726,-696030243
10/6/2020, 12:28:05 ,0.01604801,0.002825852,-2.500473,0.07331441,-0.1079122,-0.02692254,0.4732175,216,33,0,190,0, t,444438692,-696030312
10/6/2020, 12:28:06 ,0.03232168,0.01312635,-2.492712,0.04666235,0.1152515,0.03197902,0.4732175,216,33,0,190,0, t,444438692,-696030312
10/6/2020, 12:28:07 ,0.01553904,0.003204424,-2.48273,0.0239569,0.003778078,0.004630593,0.4951901,217,33,0,190,0, t,444438692,-696030312
10/6/2020, 12:28:08 ,0.03261165,0.004814334,-2.479592,-0.03740764,0.06680024,0.01234559,0.5126407,218,33,0,190,0, t,444438624,-696030422
10/6/2020, 12:28:09 ,0.01505253,0.003844626,-2.480157,0.05184827,0.02587309,0.01084365,0.5124832,217,33,0,190,0, t,444438596,-696030468
10/6/2020, 12:28:10 ,0.01821886,-0.001123477,-2.451815,0.04738495,0.03515741,0.02250675,0.5223135,218,33,0,190,0, t,444438571,-696030513
10/6/2020, 12:28:11 ,0.01946299,-0.005216204,-2.444575,-0.03312239,0.004785862,0.01615973,0.5669436,219,33,0,190,0, t,444438571,-696030513
10/6/2020, 12:28:12 ,0.02791094,-0.007318955,-2.442366,-0.09296416,-0.04513524,-0.01383578,0.6163309,220,33,0,190,0, t,444438477,-696030682
10/6/2020, 12:28:13 ,0.03443624,-0.006762747,-2.453746,0.09660815,-0.03860107,-0.02935512,0.5813395,220,33,0,190,0, t,444438445,-696030738
10/6/2020, 12:28:14 ,0.01674881,-0.004470583,-2.469726,0.05398453,-0.06203618,-0.03048213,0.6274068,219,33,0,190,0, t,444438410,-696030786
10/6/2020, 12:28:15 ,0.02909565,-0.006582305,-2.464283,-0.02610707,-0.08904684,0.01628136,0.6004193,218,33,0,190,0, t,444438374,-696030834
10/6/2020, 12:28:16 ,0.02909565,-0.006582305,-2.464283,-0.02610707,-0.08904684,0.01628136,0.5707635,218,33,0,190,0, t,444438309,-696030939
10/6/2020, 12:28:17 ,0.03641089,-0.01563617,-2.435385,-0.007286289,0.02773684,0.03574221,0.5707635,218,33,0,190,0, t,444438309,-696030939
10/6/2020, 12:28:18 ,0.03641089,-0.01563617,-2.435385,-0.007286289,0.02773684,0.03574221,0.5286501,222,33,0,190,0, t,444438284,-696030993
10/6/2020, 12:28:19 ,0.01368509,-0.00317198,-2.399077,0.002451072,0.1090062,0.02622639,0.5132617,222,33,0,190,0, t,444438259,-696031045
10/6/2020, 12:28:20 ,0.01809559,0.004623577,-2.388117,0.04326515,-0.02509501,-0.01452885,0.5010557,222,33,0,190,0, t,444438216,-696031128
10/6/2020, 12:28:21 ,0.02319572,-0.006713767,-2.391079,0.00657299,0.05751374,0.02295936,0.5048862,223,33,0,190,0, t,444438196,-696031164
10/6/2020, 12:28:22 ,0.02318021,-0.009474847,-2.392481,0.05473178,-0.08320485,-0.005956607,0.4879816,223,33,0,190,0, t,444438176,-696031201
10/6/2020, 12:28:23 ,0.02874688,0.001368813,-2.39156,0.07050056,-0.06255688,-0.009930803,0.5156193,222,33,0,190,0, t,444438153,-696031240
10/6/2020, 12:28:24 ,0.01463163,-0.01208444,-2.387683,-0.1182925,0.02728557,0.03319044,0.5100703,222,33,0,190,0, t,444438108,-696031314
10/6/2020, 12:28:25 ,0.02383772,-0.003707953,-2.382991,-0.01397535,0.004743053,-0.003573841,0.5230992,223,33,0,190,0, t,444438087,-696031350
10/6/2020, 12:28:26 ,0.01922062,-0.007914715,-2.37336,-0.02094483,0.01743008,0.03012889,0.5015182,224,33,0,190,0, t,444438042,-696031427
10/6/2020, 12:28:27 ,0.02324507,-0.006163258,-2.368374,-0.07641174,-0.01040893,0.01893247,0.5071798,224,33,0,190,0, t,444438019,-696031468
10/6/2020, 12:28:28 ,0.01981835,-0.0169312,-2.339427,-0.01086937,0.08363901,0.01974026,0.4978649,225,33,0,190,0, t,444437977,-696031549
10/6/2020, 12:28:29 ,0.009057773,-0.005215403,-2.323705,-0.03895018,0.08304306,0.007193801,0.4988784,226,33,0,190,0, t,444437939,-696031622
10/6/2020, 12:28:30 ,0.0319912,-0.01154783,-2.308355,-0.04084674,0.05740787,0.02316676,0.4988784,226,33,0,190,0, t,444437939,-696031622
10/6/2020, 12:28:31 ,0.0173185,-0.004531544,-2.298855,0.002381552,0.01812181,0.0224048,0.5105371,228,33,0,190,0, t,444437920,-696031661
