Date, Time, mavlink_attitude_t.roll, mavlink_attitude_t.pitch, mavlink_attitude_t.yaw, mavlink_attitude_t.rollspeed, mavlink_attitude_t.pitchspeed, mavlink_attitude_t.yawspeed, mavlink_vfr_hud_t.groundspeed, mavlink_vfr_hud_t.heading, mavlink_mission_request_t.seq, mavlink_mission_request_t.mission_type, mavlink_mission_request_t.target_component, mavlink_mission_item_int_t.current, mavlink_mission_count_t.count, mavlink_global_position_int_t.lat, mavlink_global_position_int_t.lon
10/6/2020, 3:56:02 ,0.02818855,0.004300155,-2.681797,0.09364058,0.09879543,-0.3283541,0.4484935,215,35,0,190,0, t,441250489,-701060857
10/6/2020, 3:56:03 ,0.0269893,0.000560869,-2.830777,0.1671731,-0.07456643,-0.07414431,0.546856,199,35,0,190,0, t,441250466,-701060879
10/6/2020, 3:56:04 ,0.04899389,-0.002340227,-2.843073,-0.1185792,0.08295584,0.03959936,0.6066867,197,35,0,190,0, t,441250437,-701060900
10/6/2020, 3:56:05 ,0.05464615,-0.01750891,-2.799527,0.018112,0.04078051,0.08693489,0.62802,198,35,0,190,0, t,441250404,-701060914
10/6/2020, 3:56:06 ,0.03872525,0.007935047,-2.739682,0.08463523,0.0978956,0.05192265,0.5942999,201,35,0,190,0, t,441250378,-701060928
10/6/2020, 3:56:07 ,0.04181037,-0.01273934,-2.681308,-0.01855154,0.05723537,0.06409314,0.5649992,204,35,0,190,0, t,441250312,-701060968
10/6/2020, 3:56:08 ,0.03868618,-0.03641637,-2.596313,-0.04498938,-0.1272839,0.03201119,0.5548736,210,35,0,190,0, t,441250284,-701060988
10/6/2020, 3:56:09 ,0.006301112,-0.01740495,-2.560441,-0.06176865,0.05927254,0.05990276,0.5228113,212,35,0,190,0, t,441250228,-701061026
10/6/2020, 3:56:10 ,0.0540405,-0.03777352,-2.570549,-0.05538309,-0.1749733,-0.001702387,0.5260569,213,35,0,190,0, t,441250204,-701061045
10/6/2020, 3:56:11 ,0.02746252,0.004356656,-2.571991,-0.06811323,0.184228,0.05857263,0.5226388,213,35,0,190,0, t,441250180,-701061069
10/6/2020, 3:56:12 ,0.03901142,-0.0214154,-2.57829,0.02069626,0.07900779,0.000335962,0.4937715,212,35,0,190,0, t,441250141,-701061113
10/6/2020, 3:56:13 ,0.03974895,-0.01892432,-2.588757,-0.04737046,0.02879288,0.00517719,0.5219575,211,35,0,190,0, t,441250141,-701061113
10/6/2020, 3:56:14 ,0.05184163,-0.000232592,-2.611402,0.09261478,0.05964022,-0.02568751,0.5199249,211,35,0,190,0, t,441250100,-701061150
10/6/2020, 3:56:15 ,0.03037055,-0.01443681,-2.621724,0.08240086,0.07380275,-0.00685365,0.5002185,210,35,0,190,0, t,441250078,-701061161
10/6/2020, 3:56:16 ,0.04767513,-0.000921577,-2.646385,0.00981317,-0.01360274,-0.03541825,0.4986987,208,35,0,190,0, t,441250046,-701061192
10/6/2020, 3:56:17 ,0.04724275,-0.0325873,-2.676783,0.002460356,-0.2431832,-0.04564938,0.5184408,206,35,0,190,0, t,441250028,-701061205
10/6/2020, 3:56:18 ,0.02520111,-0.03363352,-2.692685,-0.1408834,0.124456,0.02099646,0.4763164,206,35,0,190,0, t,441250012,-701061221
10/6/2020, 3:56:19 ,0.02465686,-0.00838615,-2.726237,-0.04703626,0.1398471,-0.01984119,0.5243835,204,35,0,190,0, t,441249987,-701061238
10/6/2020, 3:56:20 ,0.04650468,-0.01183888,-2.773212,-0.004628173,-0.05711685,-0.06444999,0.5246477,201,35,0,190,0, t,441249939,-701061259
10/6/2020, 3:56:21 ,0.03112621,-0.01959456,-2.797996,-0.1332411,0.06470964,0.000497535,0.5159196,200,35,0,190,0, t,441249916,-701061266
10/6/2020, 3:56:22 ,0.02596728,-0.02166706,-2.803252,-0.02924778,-0.03523886,0.01284553,0.5001526,199,35,0,190,0, t,441249897,-701061276
10/6/2020, 3:56:23 ,0.04621827,-0.01340513,-2.811589,0.006570793,-0.06358206,-0.008887737,0.4822183,199,35,0,190,0, t,441249878,-701061282
10/6/2020, 3:56:24 ,0.02950452,-0.02302432,-2.81008,-0.04070989,-0.01936596,0.01726576,0.4932146,199,35,0,190,0, t,441249849,-701061295
10/6/2020, 3:56:25 ,0.03602289,-0.007793456,-2.800028,-0.0132455,-0.08829571,0.01380187,0.5327132,199,35,0,190,0, t,441249819,-701061308
10/6/2020, 3:56:26 ,0.03410143,-0.03210746,-2.789026,-0.1130962,0.04817824,0.01498484,0.5283613,200,35,0,190,0, t,441249767,-701061350
10/6/2020, 3:56:27 ,0.02109387,-0.02227262,-2.778542,-0.07519194,-0.02601675,0.001531076,0.5267879,200,35,0,190,0, t,441249740,-701061374
10/6/2020, 3:56:28 ,0.03596027,-0.0200089,-2.784847,-0.1061647,0.0155787,0.008231816,0.5563507,200,35,0,190,0, t,441249711,-701061389
10/6/2020, 3:56:29 ,0.03623354,-0.001135785,-2.798707,0.0647065,0.07524216,0.01085777,0.5243456,199,35,0,190,0, t,441249651,-701061417
10/6/2020, 3:56:30 ,0.03138329,-0.01198624,-2.797317,-0.05925129,0.1186593,0.03731099,0.5008644,199,35,0,190,0, t,441249623,-701061425
10/6/2020, 3:56:31 ,0.0382256,-0.02927564,-2.778587,0.0154857,-0.03863022,0.01106328,0.5183176,199,35,0,190,0, t,441249597,-701061432
10/6/2020, 3:56:32 ,0.03850904,-0.01328192,-2.773222,0.08066891,0.07810057,-0.01495537,0.5633187,200,35,0,190,0, t,441249563,-701061465
10/6/2020, 3:56:33 ,0.043639,-0.01031573,-2.770459,0.04277238,-0.04249794,-0.02360639,0.4896054,201,35,0,190,0, t,441249525,-701061471
10/6/2020, 3:56:34 ,0.04039625,-0.0293447,-2.749743,0.01487884,-0.01798741,0.03074081,0.466843,202,35,0,190,0, t,441249500,-701061479
10/6/2020, 3:56:35 ,0.04490327,-0.02919022,-2.735449,0.006887106,-0.2061263,0.000330154,0.4572535,203,35,0,190,0, t,441249462,-701061489
10/6/2020, 3:56:36 ,0.03495637,0.00573967,-2.70749,0.1126382,0.1185563,0.002144974,0.4680919,204,35,0,190,0, t,441249441,-701061496
10/6/2020, 3:56:37 ,0.03016847,-0.01122793,-2.6992,-0.02009042,-0.06208935,-0.01440566,0.4707942,205,35,0,190,0, t,441249420,-701061509
10/6/2020, 3:56:38 ,0.03885,-0.004287932,-2.70777,-0.005440996,-0.009658691,-0.01747807,0.4857247,205,35,0,190,0, t,441249385,-701061536
10/6/2020, 3:56:39 ,0.02812669,-0.002965849,-2.726571,0.04738828,0.01913736,-0.02239101,0.5016456,204,35,0,190,0, t,441249366,-701061547
10/6/2020, 3:56:40 ,0.03497934,-0.007460289,-2.744106,0.1135516,-0.02935776,-0.0194549,0.5069612,203,35,0,190,0, t,441249324,-701061560
10/6/2020, 3:56:41 ,0.03137024,-0.01146558,-2.755869,-0.04339747,0.1167667,0.008643987,0.5253257,202,35,0,190,0, t,441249303,-701061570
10/6/2020, 3:56:42 ,0.05235415,-0.01679238,-2.766391,-0.005683613,0.07660778,0.004988436,0.4846035,201,35,0,190,0, t,441249266,-701061588
10/6/2020, 3:56:43 ,0.0391083,-0.03168928,-2.759867,-0.03608514,-0.02575895,-0.001497689,0.500802,201,35,0,190,0, t,441249243,-701061603
10/6/2020, 3:56:44 ,0.05734097,-0.01557873,-2.772028,-0.02097223,-0.004036569,0.001460727,0.5449666,201,35,0,190,0, t,441249216,-701061622
10/6/2020, 3:56:45 ,0.01974482,-0.009355951,-2.77981,-0.003989923,0.08563098,-0.02931242,0.5440727,201,35,0,190,0, t,441249191,-701061635
10/6/2020, 3:56:46 ,0.01289143,0.007198773,-2.783895,-0.1554469,0.1349264,-0.01303862,0.5005041,200,35,0,190,0, t,441249147,-701061653
10/6/2020, 3:56:47 ,0.04620644,-0.03077257,-2.78226,-0.0441745,-0.1239522,0.03402004,0.4846498,200,35,0,190,0, t,441249120,-701061668
10/6/2020, 3:56:48 ,0.03556599,-0.01101115,-2.772256,0.02997184,-0.01941472,-0.0300479,0.4926773,200,35,0,190,0, t,441249090,-701061685
10/6/2020, 3:56:49 ,0.03505597,-0.003325485,-2.762498,-0.009193346,0.06866582,-0.002118389,0.4968643,201,35,0,190,0, t,441249034,-701061715
10/6/2020, 3:56:50 ,0.03081464,-0.0220303,-2.75129,0.02717972,-0.09061228,-0.002315387,0.5188975,202,35,0,190,0, t,441249006,-701061734
10/6/2020, 3:56:51 ,0.03263936,-0.01698921,-2.749655,-0.04284212,-0.04849555,0.009601785,0.4980052,202,35,0,190,0, t,441248958,-701061768
10/6/2020, 3:56:52 ,0.03460072,-0.01072792,-2.756391,0.1517465,-0.09890007,-0.004639168,0.5066546,201,35,0,190,0, t,441248927,-701061786
10/6/2020, 3:56:53 ,0.01595682,-0.008185823,-2.758592,-0.153705,0.06044255,0.02762596,0.510255,202,35,0,190,0, t,441248896,-701061806
10/6/2020, 3:56:54 ,0.0266853,-0.006535456,-2.763239,0.002505375,0.06686998,0.002257318,0.5199204,201,35,0,190,0, t,441248867,-701061825
10/6/2020, 3:56:55 ,0.04291072,-0.02028836,-2.774293,-0.08180982,0.06417539,0.00218741,0.5073846,201,35,0,190,0, t,441248839,-701061841
10/6/2020, 3:56:56 ,0.04176485,-0.0260974,-2.809592,0.007540607,-0.05233314,-0.02947826,0.4802715,199,35,0,190,0, t,441248815,-701061859
10/6/2020, 3:56:57 ,0.03495173,-0.007256944,-2.817417,0.02066026,-0.01137772,-0.02473219,0.4894067,199,35,0,190,0, t,441248764,-701061879
10/6/2020, 3:56:58 ,0.02007308,-0.01961941,-2.827209,-0.0217058,0.05263197,-0.004056464,0.4901347,198,35,0,190,0, t,441248741,-701061889
10/6/2020, 3:56:59 ,-3.59E-05,0.009871405,-2.818462,-0.1249468,0.1787875,0.05630268,0.4789911,198,35,0,190,0, t,441248696,-701061915
10/6/2020, 3:57:00 ,0.02476794,-0.01039245,-2.804356,0.03903354,-0.05517534,0.001035317,0.4746895,198,35,0,190,0, t,441248675,-701061926
10/6/2020, 3:57:01 ,0.03353646,-0.02021052,-2.80375,-0.01969373,-0.05620131,-0.0286776,0.4803872,199,35,0,190,0, t,441248651,-701061936
10/6/2020, 3:57:02 ,0.03256935,-0.0107041,-2.8069,0.05482675,0.08197526,-0.04351411,0.5113357,199,35,0,190,0, t,441248624,-701061942
10/6/2020, 3:57:03 ,0.0284066,-0.01056993,-2.82332,-0.05566835,-0.000815846,-0.03345912,0.5069521,198,35,0,190,0, t,441248573,-701061967
10/6/2020, 3:57:04 ,0.04301468,-0.01580863,-2.840203,0.04857481,0.004917903,-0.02379926,0.5082067,197,35,0,190,0, t,441248547,-701061981
10/6/2020, 3:57:05 ,0.02462083,-0.02071019,-2.842587,-0.04943645,-0.03796383,-0.005124831,0.5103335,197,35,0,190,0, t,441248522,-701061998
10/6/2020, 3:57:06 ,0.02721022,-0.02259465,-2.85412,-0.1011263,0.06417336,-0.004862333,0.4904476,196,35,0,190,0, t,441248500,-701062010
10/6/2020, 3:57:07 ,0.0364316,-0.01235149,-2.860638,-0.04579449,0.0609268,0.006406793,0.4770934,196,35,0,190,0, t,441248452,-701062027
10/6/2020, 3:57:08 ,0.04184365,-0.006920952,-2.858755,-0.02882867,-0.08181345,0.000607958,0.4881914,195,35,0,190,0, t,441248428,-701062036
10/6/2020, 3:57:09 ,0.03810364,-0.001733467,-2.853667,0.02741084,0.08231331,-0.001629374,0.4634122,197,35,0,190,0, t,441248405,-701062048
10/6/2020, 3:57:10 ,0.04160252,-0.02515219,-2.836886,-0.09604022,-0.208029,0.02374435,0.4816757,197,35,0,190,0, t,441248385,-701062065
10/6/2020, 3:57:11 ,0.04404798,0.002521787,-2.834275,0.10475,-0.07441413,-0.05634368,0.4905485,197,35,0,190,0, t,441248339,-701062092
10/6/2020, 3:57:12 ,0.02681392,-0.0262889,-2.823657,-0.1237038,-0.03816617,0.03467819,0.4889182,198,35,0,190,0, t,441248310,-701062111
10/6/2020, 3:57:13 ,0.01820469,0.00068409,-2.81849,0.0334684,0.1313433,-0.01583291,0.5259445,198,35,0,190,0, t,441248281,-701062118
10/6/2020, 3:57:14 ,0.03317719,-0.01759937,-2.823979,0.01869257,-0.1292356,-0.04464896,0.5412942,198,35,0,190,0, t,441248249,-701062126
10/6/2020, 3:57:15 ,0.04906974,-0.003036045,-2.791833,0.05992506,-0.02158557,0.01234619,0.509221,200,35,0,190,0, t,441248200,-701062146
10/6/2020, 3:57:16 ,0.05998767,-0.008846976,-2.771329,-0.0314997,0.09996388,0.004423712,0.5108342,200,35,0,190,0, t,441248176,-701062165
10/6/2020, 3:57:17 ,0.04426718,-0.01362507,-2.76734,0.08068073,-0.02187311,-0.03487847,0.5012218,201,35,0,190,0, t,441248158,-701062183
10/6/2020, 3:57:18 ,0.04627568,-0.02740662,-2.772575,0.02247319,-0.0399566,-0.01640441,0.4952269,201,35,0,190,0, t,441248135,-701062195
10/6/2020, 3:57:19 ,0.02626329,-0.02529346,-2.762578,-0.0758986,-0.05164819,0.04100238,0.4869753,201,35,0,190,0, t,441248089,-701062216
10/6/2020, 3:57:20 ,0.04008627,0.007508844,-2.769949,0.01349446,0.09958548,-0.02530562,0.4946108,201,35,0,190,0, t,441248040,-701062239
10/6/2020, 3:57:21 ,0.02390591,-0.01629445,-2.766265,-0.006113016,-0.01449532,0.002539682,0.5169433,201,35,0,190,0, t,441248040,-701062239
10/6/2020, 3:57:22 ,0.02505424,-0.002093267,-2.751331,0.1091674,-0.0362923,-0.01065739,0.5076829,202,35,0,190,0, t,441248014,-701062248
10/6/2020, 3:57:23 ,0.0451253,-0.01954547,-2.737607,-0.01719792,0.009134723,-0.007256907,0.5008016,202,35,0,190,0, t,441247955,-701062284
10/6/2020, 3:57:24 ,0.0329376,-0.01948515,-2.734082,0.02172589,-0.01563844,0.01838505,0.5390865,203,35,0,190,0, t,441247917,-701062305
10/6/2020, 3:57:25 ,0.04226489,-0.01535925,-2.731116,0.0833347,-0.05677202,-0.02465047,0.5373609,203,35,0,190,0, t,441247887,-701062325
10/6/2020, 3:57:26 ,0.02215524,-0.01606125,-2.730564,-0.01071308,0.04077896,-0.02001218,0.5153857,203,35,0,190,0, t,441247828,-701062366
10/6/2020, 3:57:27 ,0.03220157,0.007426534,-2.751692,-0.003038509,-0.01069529,-0.01144259,0.4906308,202,35,0,190,0, t,441247800,-701062380
10/6/2020, 3:57:28 ,0.03658086,-0.0197395,-2.769769,0.04060675,-0.08359926,-0.02802508,0.4767551,202,35,0,190,0, t,441247776,-701062398
10/6/2020, 3:57:29 ,0.0407071,-0.01987462,-2.794804,0.01652981,0.009370745,-0.01556825,0.4595827,200,35,0,190,0, t,441247753,-701062418
10/6/2020, 3:57:30 ,0.05007524,0.000401538,-2.817132,0.07707598,-0.01791937,-0.03209502,0.4620906,199,35,0,190,0, t,441247727,-701062431
10/6/2020, 3:57:31 ,0.05792609,-0.01007594,-2.830902,-0.03590577,-0.1212773,-0.006442247,0.433823,198,35,0,190,0, t,441247678,-701062438
10/6/2020, 3:57:32 ,0.03597346,-0.004971512,-2.814414,-0.1549133,0.1275775,0.06429124,0.4359395,198,35,0,190,0, t,441247653,-701062453
10/6/2020, 3:57:33 ,0.04117477,-0.01758937,-2.817832,0.02686378,-0.1008758,-0.02551135,0.4672894,198,35,0,190,0, t,441247626,-701062474
10/6/2020, 3:57:34 ,0.04004726,-0.006633263,-2.827513,-0.01589125,-0.04836943,-0.01229064,0.4981926,198,35,0,190,0, t,441247602,-701062498
10/6/2020, 3:57:35 ,0.03698647,-0.007339042,-2.835734,0.03170516,0.1062506,-0.04452767,0.5293033,197,35,0,190,0, t,441247537,-701062519
10/6/2020, 3:57:36 ,0.03760916,-0.02062056,-2.837958,0.06668917,-0.0390014,-0.004824349,0.5242055,197,35,0,190,0, t,441247503,-701062535
10/6/2020, 3:57:37 ,0.0336463,-0.01491207,-2.827486,-0.07065819,-0.1384934,0.02362663,0.5222235,197,35,0,190,0, t,441247471,-701062554
10/6/2020, 3:57:38 ,0.03401465,-0.01971269,-2.822822,-0.0763486,-0.004801842,0.005764959,0.4976632,198,35,0,190,0, t,441247448,-701062570
10/6/2020, 3:57:39 ,0.04857362,-0.01027911,-2.82569,0.0812316,-0.03404811,0.006176037,0.5020083,198,35,0,190,0, t,441247386,-701062603
10/6/2020, 3:57:40 ,0.04154257,-0.01871339,-2.826017,0.061695,-0.005118735,-0.01731103,0.5385975,198,35,0,190,0, t,441247351,-701062618
10/6/2020, 3:57:41 ,0.04390824,-0.01751205,-2.822717,0.04588793,-0.009933055,-0.02037758,0.5245821,198,35,0,190,0, t,441247317,-701062634
10/6/2020, 3:57:42 ,0.0291932,0.002737731,-2.807751,-0.05356679,0.09419359,0.0278247,0.5297206,198,35,0,190,0, t,441247283,-701062649
10/6/2020, 3:57:43 ,0.03608068,-0.00853049,-2.796781,-0.00218087,0.06332999,0.00691625,0.5414709,199,35,0,190,0, t,441247245,-701062667
10/6/2020, 3:57:44 ,0.0333886,0.000456315,-2.778823,0.1024685,-0.1379972,-0.000858607,0.5331373,200,35,0,190,0, t,441247182,-701062700
10/6/2020, 3:57:45 ,0.03929523,-0.009188671,-2.77776,0.05337078,0.03059386,-0.02224296,0.4770711,201,35,0,190,0, t,441247156,-701062719
10/6/2020, 3:57:46 ,0.03909776,-0.009222534,-2.773878,-0.007516072,0.02034769,0.009930043,0.4869038,200,35,0,190,0, t,441247126,-701062738
10/6/2020, 3:57:47 ,0.04764523,-0.004188381,-2.784271,0.06839671,-0.05990764,-0.01674902,0.4859881,200,35,0,190,0, t,441247101,-701062759
10/6/2020, 3:57:48 ,0.03210228,0.004390731,-2.797496,-0.02136046,0.0730577,-0.02399298,0.498344,200,35,0,190,0, t,441247069,-701062784
10/6/2020, 3:57:49 ,0.05666718,-0.01233137,-2.810997,0.0483661,0.07226913,-0.02728244,0.4880774,199,35,0,190,0, t,441247041,-701062810
10/6/2020, 3:57:50 ,0.0460268,-0.01420863,-2.861156,-0.06805398,-0.01386971,-0.05522897,0.5128729,196,35,0,190,0, t,441246973,-701062862
10/6/2020, 3:57:51 ,0.0318845,-0.005082149,-2.925926,-0.03827267,0.05883111,-0.01406548,0.4990622,194,35,0,190,0, t,441246937,-701062896
10/6/2020, 3:57:52 ,0.03705918,0.009659696,-2.947319,-0.07979563,0.1356778,0.01276154,0.479563,192,35,0,190,0, t,441246906,-701062931
10/6/2020, 3:57:53 ,0.0251151,-0.01436629,-2.969052,-0.1002233,0.05170453,-0.002881271,0.4535787,191,35,0,190,0, t,441246873,-701062960
10/6/2020, 3:57:54 ,0.03081443,-0.01393964,-2.995163,-0.1149485,-0.03197473,-0.03022409,0.4306212,189,35,0,190,0, t,441246838,-701062984
10/6/2020, 3:57:55 ,0.03863476,0.008160975,-3.053929,0.04192782,-0.1686887,-0.07537185,0.4576845,186,35,0,190,0, t,441246812,-701063010
10/6/2020, 3:57:56 ,0.03984665,-0.002381429,-3.078422,0.03342951,-0.08874752,-0.05230635,0.4054247,183,35,0,190,0, t,441246788,-701063020
10/6/2020, 3:57:57 ,0.04604707,-0.009884868,-3.120835,0.002651902,-0.1049854,-0.0142088,0.4345463,181,35,0,190,0, t,441246723,-701063045
10/6/2020, 3:57:58 ,0.03563021,-0.005324356,-3.140355,0.04153536,-0.04852785,-0.03888002,0.5072454,180,35,0,190,0, t,441246675,-701063064
10/6/2020, 3:57:59 ,0.04377406,-0.01071327,3.139113,-0.03288173,-0.05896373,-0.007290686,0.5405526,179,35,0,190,0, t,441246637,-701063084
10/6/2020, 3:58:00 ,0.03572103,0.001106072,-3.135506,0.05331368,0.05833638,-0.004914904,0.5506375,179,35,0,190,0, t,441246601,-701063104
10/6/2020, 3:58:01 ,0.04017775,-0.008633453,-3.13282,0.09880114,-0.004234158,-0.005337694,0.5541739,180,35,0,190,0, t,441246564,-701063124
10/6/2020, 3:58:02 ,0.03021625,-0.01568792,-3.123675,-0.01437641,-0.0595246,-0.01235521,0.576891,180,35,0,190,0, t,441246524,-701063145
10/6/2020, 3:58:03 ,0.04189716,-0.0256522,-3.119001,-0.01657853,-0.1194424,-0.02161571,0.5454616,181,35,0,190,0, t,441246463,-701063182
10/6/2020, 3:58:04 ,0.02977562,-0.02159519,-3.083201,0.008525383,-0.01685817,0.03348044,0.4174584,182,35,0,190,0, t,441246416,-701063205
10/6/2020, 3:58:05 ,0.03703801,-0.009805173,-3.057065,0.02059766,0.1479598,0.06037102,0.3980453,184,35,0,190,0, t,441246392,-701063218
10/6/2020, 3:58:06 ,0.03091662,-0.02436772,-3.026415,-0.02896873,0.09855837,0.06381638,0.3441871,186,35,0,190,0, t,441246357,-701063247
10/6/2020, 3:58:07 ,0.03660604,-0.02110647,-2.990402,0.0202282,0.07711927,0.04692514,0.3257101,187,35,0,190,0, t,441246357,-701063247
10/6/2020, 3:58:08 ,0.03105238,-0.0315712,-2.938962,-0.02034377,0.04861261,0.06165317,0.2395876,190,35,0,190,0, t,441246346,-701063257
10/6/2020, 3:58:09 ,0.01706856,-0.006436724,-2.817784,-0.05844097,0.03401894,0.1309835,0.1590687,194,35,0,190,0, t,441246337,-701063285
10/6/2020, 3:58:10 ,0.02923474,-0.01377903,-2.687551,-0.0436397,-0.07072677,0.1327345,0.07610387,206,35,0,190,0, t,441246336,-701063308
10/6/2020, 3:58:11 ,0.02195886,-0.02305961,-2.512787,-0.01847832,-0.01485952,0.1529293,0.02526824,210,35,0,190,0, t,441246344,-701063315
10/6/2020, 3:58:12 ,0.0285433,-0.001566038,-2.280269,-0.03976998,-0.03090202,0.1814747,0.07284422,229,35,0,190,0, t,441246358,-701063340
10/6/2020, 3:58:13 ,0.02796342,0.009596884,-2.128259,-0.0204258,0.02583038,0.03848193,0.1230245,234,35,0,190,0, t,441246364,-701063363
10/6/2020, 3:58:14 ,0.03721217,0.006174643,-2.127776,0.03527121,0.08161671,-0.01573424,0.4417528,238,35,0,190,0, t,441246346,-701063462
10/6/2020, 3:58:15 ,0.03592844,-0.01191213,-2.267385,-0.06478539,-0.03373587,-0.1359849,0.4417528,238,35,0,190,0, t,441246346,-701063462
10/6/2020, 3:58:16 ,0.05478892,-0.001589853,-2.39419,0.05949947,-0.04833852,-0.1532373,0.5958485,230,35,0,190,0, t,441246328,-701063519
10/6/2020, 3:58:17 ,0.0433825,0.006519511,-2.626846,-0.0233116,-0.01684145,-0.149121,0.595544,216,35,0,190,0, t,441246306,-701063571
10/6/2020, 3:58:18 ,0.04280447,0.003345557,-2.73836,-0.06877232,0.05829372,-0.1366727,0.5743672,209,35,0,190,0, t,441246274,-701063616
10/6/2020, 3:58:19 ,0.04343495,-0.001362499,-2.919798,-0.08715604,0.08681645,-0.09326936,0.5113587,192,35,0,190,0, t,441246200,-701063662
10/6/2020, 3:58:20 ,0.04264934,-0.001576986,-2.98752,-0.04390509,0.03086676,-0.08118771,0.4985353,188,35,0,190,0, t,441246157,-701063674
10/6/2020, 3:58:21 ,0.04964793,0.000865355,-3.074435,0.00657015,-0.012392,-0.0561337,0.4820376,183,35,0,190,0, t,441246122,-701063682
10/6/2020, 3:58:22 ,0.03777902,0.002077784,-3.118778,-0.04221271,0.1038036,-0.02204219,0.4820376,183,35,0,190,0, t,441246088,-701063682
10/6/2020, 3:58:23 ,0.04980537,-0.005930535,3.141369,0.001338449,-0.06977141,-0.01434611,0.4904849,180,35,0,190,0, t,441246052,-701063685
10/6/2020, 3:58:24 ,0.04221799,-0.00934444,3.129328,-0.02556036,0.1178448,-0.008781552,0.5678867,179,35,0,190,0, t,441245965,-701063697
10/6/2020, 3:58:25 ,0.03949096,0.001671255,3.120445,0.1033061,0.03946635,-0.02356307,0.572369,178,35,0,190,0, t,441245932,-701063703
10/6/2020, 3:58:26 ,0.03859932,-0.01837058,3.129976,0.04182538,-0.03087492,0.000959607,0.5609662,179,35,0,190,0, t,441245866,-701063713
10/6/2020, 3:58:27 ,0.03047393,-0.005174682,-3.126309,0.03397788,0.07965013,0.01114217,0.5265017,180,35,0,190,0, t,441245838,-701063717
10/6/2020, 3:58:28 ,0.04288427,-0.01342473,-3.117201,-0.02854588,0.01294184,0.02468032,0.5139856,180,35,0,190,0, t,441245810,-701063719
10/6/2020, 3:58:29 ,0.02797072,-0.005087346,-3.097013,-0.03137538,0.1085042,0.04238985,0.5063753,181,35,0,190,0, t,441245783,-701063720
10/6/2020, 3:58:30 ,0.0367313,-0.01320516,-3.051059,0.06018217,0.03830202,0.01467431,0.484358,184,35,0,190,0, t,441245724,-701063725
10/6/2020, 3:58:31 ,0.03732506,-0.01034014,-3.036306,-0.03568395,-0.06593719,0.03759116,0.5051838,186,35,0,190,0, t,441245690,-701063733
10/6/2020, 3:58:32 ,0.04458994,-0.01456078,-3.016691,0.1116971,-0.03925813,0.005776505,0.4985127,186,35,0,190,0, t,441245653,-701063740
10/6/2020, 3:58:33 ,0.03097217,-0.01874448,-2.995586,-0.03481051,-0.07847388,0.02333044,0.4972612,188,35,0,190,0, t,441245620,-701063747
10/6/2020, 3:58:34 ,0.04011104,-0.02070621,-2.976366,0.03685012,-0.2078998,-0.02637943,0.5002049,189,35,0,190,0, t,441245545,-701063777
10/6/2020, 3:58:35 ,0.03408523,-0.01176023,-2.957028,0.06641616,-0.1384894,-0.01080395,0.5005519,189,35,0,190,0, t,441245504,-701063789
10/6/2020, 3:58:36 ,0.02795359,-0.01043943,-2.945563,0.06161007,-0.006629792,0.001879071,0.5176418,190,35,0,190,0, t,441245460,-701063803
10/6/2020, 3:58:37 ,0.0396696,-0.008809265,-2.945151,0.02215504,0.0297659,-0.002454063,0.5072719,191,35,0,190,0, t,441245386,-701063818
10/6/2020, 3:58:38 ,0.03214942,-0.006392147,-2.930154,0.006481123,0.08550338,0.01949047,0.4727497,192,35,0,190,0, t,441245386,-701063818
10/6/2020, 3:58:39 ,0.03821317,-0.01544017,-2.90803,-0.007805117,-0.05582521,0.01839096,0.4562955,192,35,0,190,0, t,441245329,-701063822
10/6/2020, 3:58:40 ,0.04461499,-0.004433397,-2.8948,0.05812392,-0.02922525,0.002728954,0.4523369,193,35,0,190,0, t,441245297,-701063831
10/6/2020, 3:58:41 ,0.04256013,-0.008907437,-2.86534,0.03356808,-0.06579464,0.002734081,0.4774272,195,35,0,190,0, t,441245241,-701063842
10/6/2020, 3:58:42 ,0.03593476,-0.03036204,-2.826087,-0.1520788,0.009741613,0.04944383,0.4424036,197,35,0,190,0, t,441245241,-701063842
10/6/2020, 3:58:43 ,0.02639889,-0.01592299,-2.77468,-0.01800452,0.03402063,0.07560021,0.4256945,199,35,0,190,0, t,441245195,-701063853
10/6/2020, 3:58:44 ,0.02824214,-0.01378725,-2.711205,-0.02056228,-0.03972027,0.04954769,0.3456442,201,35,0,190,0, t,441245178,-701063850
10/6/2020, 3:58:45 ,0.03104033,-0.008637164,-2.637284,-0.02916786,-0.03725948,0.07690007,0.2353994,206,35,0,190,0, t,441245167,-701063853
10/6/2020, 3:58:46 ,0.02881913,-0.0200381,-2.552354,-0.03557782,-0.04580355,0.09053738,0.1826597,211,35,0,190,0, t,441245152,-701063851
10/6/2020, 3:58:47 ,0.03875611,-0.02623901,-2.476988,0.02519136,-0.05605308,0.09520339,0.1364287,218,35,0,190,0, t,441245148,-701063859
10/6/2020, 3:58:48 ,0.03575243,-0.009916261,-2.350204,-0.009370192,0.04505314,0.1188365,0.1356196,223,35,0,190,0, t,441245146,-701063862
10/6/2020, 3:58:49 ,0.04145352,-0.009390254,-2.256508,0.0291661,0.04222691,0.1021233,0.1246831,230,35,0,190,0, t,441245147,-701063865
10/6/2020, 3:58:50 ,0.03035373,-0.005161244,-2.122741,0.0387185,-0.002742142,0.05031215,0.1485115,236,35,0,190,0, t,441245151,-701063869
10/6/2020, 3:58:51 ,0.04329203,-0.003305633,-2.274825,-0.04122727,-0.03715313,-0.5148345,0.2598221,238,35,0,190,0, t,441245151,-701063869
10/6/2020, 3:58:52 ,0.05466649,-0.01177118,-3.097512,-0.0139539,0.04738867,-0.8119023,0.2405759,182,35,0,190,0, t,441245126,-701063903
10/6/2020, 3:58:53 ,0.05459111,0.00655055,2.346057,0.02644038,0.03819577,-0.2711019,0.09458137,144,35,0,190,0, t,441245118,-701063905
10/6/2020, 3:58:54 ,0.0385011,0.01870475,2.260671,0.03340676,-0.1773915,-0.121513,0.1272527,134,35,0,190,0, t,441245101,-701063894
10/6/2020, 3:58:55 ,0.04354969,0.02029617,2.247758,0.05238359,0.2153729,0.0591686,0.232951,127,35,0,190,0, t,441245082,-701063860
10/6/2020, 3:58:56 ,0.01725072,-0.01281888,-2.914217,0.009328108,-0.06620315,1.076232,0.3213859,163,35,0,190,0, t,441245029,-701063760
10/6/2020, 3:58:57 ,0.01841401,0.000250869,-2.305027,0.04003609,-0.02170815,1.251528,0.2554946,193,35,0,190,0, t,441245003,-701063737
10/6/2020, 3:58:58 ,0.02163123,0.02433452,-1.620364,0.01146943,0.06157814,0.1829862,0.1256471,227,35,0,190,0, t,441244985,-701063743
10/6/2020, 3:58:59 ,0.01940969,0.007855784,-1.767668,-0.01393705,-0.02094215,-0.2437588,0.2952584,258,35,0,190,0, t,441244967,-701063757
10/6/2020, 3:59:00 ,0.02241806,-0.00275756,-1.981531,-0.02714206,-0.01679658,-0.1594697,0.2906384,251,35,0,190,0, t,441244962,-701063766
10/6/2020, 3:59:01 ,0.02857241,-0.001026433,-2.057133,-0.008916941,0.04023191,-0.006855422,0.2389902,243,35,0,190,0, t,441244964,-701063772
10/6/2020, 3:59:03 ,0.0364703,-0.00328223,-2.015778,0.03419168,0.01129461,0.09027275,0.1234424,244,35,0,190,0, t,441244976,-701063814
10/6/2020, 3:59:04 ,0.04673117,-0.003662888,-3.028114,0.003098738,-0.02826985,-0.4420637,0.05287137,199,35,0,190,0, t,441244979,-701063818
10/6/2020, 3:59:05 ,0.03961359,0.02768692,3.005328,0.002165134,0.09788637,-0.1523492,0.06430984,177,35,0,190,0, t,441244979,-701063818
10/6/2020, 3:59:06 ,0.04375131,0.02079077,2.97121,-0.036991,-0.01208292,-0.03876625,0.2669902,170,35,0,190,0, t,441244941,-701063828
10/6/2020, 3:59:07 ,0.04043582,0.01233117,2.987645,-0.002171601,0.03821548,0.04489346,0.4546728,171,35,0,190,0, t,441244903,-701063832
10/6/2020, 3:59:08 ,0.03563038,-0.001025055,3.077009,-0.02248952,0.007006883,0.07344069,0.5352914,174,35,0,190,0, t,441244903,-701063832
10/6/2020, 3:59:09 ,0.03571957,-0.003902469,-3.126566,-0.02429028,0.03844753,0.0963479,0.5587507,176,35,0,190,0, t,441244903,-701063832
10/6/2020, 3:59:10 ,0.03571957,-0.003902469,-3.126566,-0.02429028,0.03844753,0.0963479,0.6141462,186,35,0,190,0, t,441244722,-701063863
10/6/2020, 3:59:11 ,0.04279407,-0.01637271,-3.006793,0.00668936,-0.03229029,0.05970192,0.6141462,186,35,0,190,0, t,441244681,-701063873
10/6/2020, 3:59:13 ,0.04093283,-0.005932637,-2.94589,0.03061409,0.04247095,0.03619192,0.6426448,189,35,0,190,0, t,441244633,-701063887
10/6/2020, 3:59:14 ,0.03166378,-0.01414425,-2.921319,0.01848457,-0.08477698,0.01566583,0.6578535,192,35,0,190,0, t,441244466,-701063955
10/6/2020, 3:59:15 ,0.04906137,-0.01765008,-2.892895,0.0160039,-0.1701381,0.003060926,0.6578535,192,35,0,190,0, t,441244466,-701063955
10/6/2020, 3:59:16 ,0.05014493,-0.008624341,-2.891678,-0.01186469,0.05122462,0.0125561,0.5703678,194,35,0,190,0, t,441244433,-701063979
10/6/2020, 3:59:17 ,0.03089046,-0.00187524,-2.895558,0.01755889,0.09788961,-0.013806,0.537564,194,35,0,190,0, t,441244359,-701064008
10/6/2020, 3:59:19 ,0.05321327,-0.01517059,-2.883158,0.04192621,-0.09766056,0.001944394,0.537564,194,35,0,190,0, t,441244359,-701064008
10/6/2020, 3:59:20 ,0.03896189,0.003922224,-2.874308,0.06627072,0.03679268,0.00619488,0.4541366,195,35,0,190,0, t,441244235,-701064035
10/6/2020, 3:59:21 ,0.03434358,-0.007284284,-2.866723,-0.04409986,0.03669142,0.01181842,0.4229934,195,35,0,190,0, t,441244235,-701064035
10/6/2020, 3:59:22 ,0.04269267,-0.004590478,-2.876182,0.05134349,-0.005041207,-0.02456133,0.4274399,195,35,0,190,0, t,441244192,-701064053
10/6/2020, 3:59:23 ,0.05061625,-0.01482738,-2.885438,0.0197812,-0.02882695,-0.0131276,0.4819722,194,35,0,190,0, t,441244137,-701064066
10/6/2020, 3:59:24 ,0.03183445,-0.0176273,-2.896886,-0.06214709,-0.03560826,0.009097784,0.5166656,193,35,0,190,0, t,441244104,-701064068
10/6/2020, 3:59:25 ,0.03832091,-0.002752665,-2.894772,0.00554873,-0.005873255,0.001427567,0.5434753,194,35,0,190,0, t,441244071,-701064070
10/6/2020, 3:59:26 ,0.04226995,-0.005976677,-2.89077,0.01686978,-0.03188643,-0.000438556,0.5496739,194,35,0,190,0, t,441244039,-701064075
10/6/2020, 3:59:27 ,0.03913035,-0.003614936,-2.883892,0.03207359,-0.03022507,-0.007419417,0.55985,194,35,0,190,0, t,441244006,-701064084
10/6/2020, 3:59:28 ,0.0385144,-0.01585646,-2.872887,-0.01877872,0.02758019,0.02161859,0.531179,195,35,0,190,0, t,441243943,-701064094
10/6/2020, 3:59:29 ,0.03345508,-0.00925092,-2.856518,0.01298998,0.003539005,0.02757863,0.5428684,195,35,0,190,0, t,441243908,-701064097
10/6/2020, 3:59:30 ,0.03917453,-0.005347285,-2.846707,0.06121207,-0.00666001,-0.009153532,0.5274175,196,35,0,190,0, t,441243876,-701064105
10/6/2020, 3:59:31 ,0.02513309,-0.008163065,-2.835722,0.006590975,0.09160466,0.02033411,0.5187203,196,35,0,190,0, t,441243806,-701064114
10/6/2020, 3:59:32 ,0.05357344,-0.01697589,-2.815486,0.02889069,-0.06129339,0.01259098,0.516042,197,35,0,190,0, t,441243769,-701064118
10/6/2020, 3:59:33 ,0.03571843,0.004381429,-2.799448,0.09008131,0.01340873,0.004043628,0.521707,198,35,0,190,0, t,441243730,-701064121
10/6/2020, 3:59:34 ,0.04743562,-0.02176093,-2.783602,-0.03425826,0.02534045,0.03096205,0.4986972,200,35,0,190,0, t,441243689,-701064131
10/6/2020, 3:59:35 ,0.03673552,-0.003785796,-2.764385,-0.0347085,0.1058172,-0.014664,0.5066491,201,35,0,190,0, t,441243623,-701064149
10/6/2020, 3:59:36 ,0.03735636,-0.007384393,-2.768784,-0.000965049,-0.03078907,-0.006323404,0.467614,201,35,0,190,0, t,441243593,-701064158
10/6/2020, 3:59:37 ,0.03313403,-0.01303785,-2.775808,0.03261873,0.01839277,0.00744503,0.4650978,200,35,0,190,0, t,441243545,-701064171
10/6/2020, 3:59:38 ,0.04736993,-0.001925204,-2.776267,-0.00395522,-0.07881084,-0.0120549,0.4674092,200,35,0,190,0, t,441243545,-701064171
10/6/2020, 3:59:39 ,0.04940473,-0.008403994,-2.764326,0.06499422,-0.1063494,0.001450258,0.4619394,201,35,0,190,0, t,441243493,-701064184
10/6/2020, 3:59:40 ,0.03220643,-0.01356716,-2.751212,0.03241961,-0.1563455,-0.005664004,0.4667224,202,35,0,190,0, t,441243468,-701064196
10/6/2020, 3:59:41 ,0.03887571,0.02261529,-2.746176,-0.01072339,0.1857168,0.03088144,0.4947398,202,35,0,190,0, t,441243440,-701064211
10/6/2020, 3:59:42 ,0.04239116,-0.001969483,-2.756295,0.007062804,-0.002554341,-0.02517342,0.5207357,202,35,0,190,0, t,441243377,-701064242
10/6/2020, 3:59:43 ,0.03273937,-0.008895449,-2.760924,-0.02296502,0.0155362,-0.01966698,0.5191398,202,35,0,190,0, t,441243343,-701064262
10/6/2020, 3:59:44 ,0.0417774,-0.004400346,-2.801135,-0.01990692,-0.001618572,-0.03326016,0.5253257,200,35,0,190,0, t,441243304,-701064284
10/6/2020, 3:59:45 ,0.03413038,0.00187248,-2.820916,-0.01459588,0.0286587,-0.03015017,0.512203,198,35,0,190,0, t,441243222,-701064312
10/6/2020, 3:59:46 ,0.03243901,0.002120234,-2.83025,-0.02606041,0.07582077,0.02351388,0.4924341,197,35,0,190,0, t,441243181,-701064326
10/6/2020, 3:59:47 ,0.0395503,0.002298757,-2.79047,-0.05464368,0.01850215,0.03695657,0.4799017,198,35,0,190,0, t,441243139,-701064340
10/6/2020, 3:59:48 ,0.03779897,6.81E-05,-2.769119,0.07604282,0.07145678,0.02069271,0.4969851,200,35,0,190,0, t,441243095,-701064358
10/6/2020, 3:59:49 ,0.01790092,0.00642949,-2.753888,0.01685203,0.08785152,0.02922877,0.4805892,202,35,0,190,0, t,441243054,-701064377
10/6/2020, 3:59:50 ,0.05135136,-0.01599768,-2.758525,0.03917345,-0.1032614,-0.04098992,0.5147846,201,35,0,190,0, t,441243019,-701064397
10/6/2020, 3:59:51 ,0.03905004,-0.004890971,-2.775007,-0.008065307,0.05910071,-0.01029892,0.4978043,201,35,0,190,0, t,441242985,-701064419
10/6/2020, 3:59:52 ,0.03905004,-0.004890971,-2.775007,-0.008065307,0.05910071,-0.01029892,0.5132365,201,35,0,190,0, t,441242919,-701064455
10/6/2020, 3:59:53 ,0.0441969,-0.01261688,-2.81531,0.01306374,0.03138518,-0.03557022,0.4653823,199,35,0,190,0, t,441242891,-701064473
10/6/2020, 3:59:54 ,0.04191264,0.00335779,-2.839837,0.04747275,-0.07471204,-0.04504948,0.4823987,197,35,0,190,0, t,441242862,-701064491
10/6/2020, 3:59:55 ,0.04191264,0.00335779,-2.839837,0.04747275,-0.07471204,-0.04504948,0.4926332,196,35,0,190,0, t,441242862,-701064491
10/6/2020, 3:59:56 ,0.03455796,-0.0137604,-2.894176,-0.01915285,-0.04170206,-0.04058852,0.4853008,194,35,0,190,0, t,441242772,-701064545
10/6/2020, 3:59:57 ,0.03547888,-0.008419096,-2.965593,-0.01743805,0.04870114,-0.03396862,0.4834814,191,35,0,190,0, t,441242772,-701064545
10/6/2020, 3:59:58 ,0.04757991,-0.01954174,-2.988579,-0.02781943,-0.1325494,-0.05402199,0.4630381,190,35,0,190,0, t,441242712,-701064571
10/6/2020, 3:59:59 ,0.03685607,0.001635317,-3.026273,-0.01891937,0.03751406,-0.0148915,0.4676842,188,35,0,190,0, t,441242712,-701064571
10/6/2020, 4:00:00 ,0.03685607,0.001635317,-3.026273,-0.01891937,0.03751406,-0.0148915,0.446281,186,35,0,190,0, t,441242609,-701064607
10/6/2020, 4:00:01 ,0.0334926,-0.0170376,-3.067431,-0.08247625,-0.000909965,0.002641073,0.5117957,184,35,0,190,0, t,441242571,-701064613
10/6/2020, 4:00:02 ,0.04008109,0.003879059,-3.081974,0.102924,-0.0856827,-0.03673888,0.5274397,183,35,0,190,0, t,441242535,-701064620
10/6/2020, 4:00:04 ,0.04008109,0.003879059,-3.081974,0.102924,-0.0856827,-0.03673888,0.5264782,183,35,0,190,0, t,441242430,-701064640
10/6/2020, 4:00:05 ,0.02805247,-0.007103432,-3.027606,-0.01250463,0.08865833,0.03424739,0.5235863,186,35,0,190,0, t,441242388,-701064648
10/6/2020, 4:00:06 ,0.03653144,-0.01112588,-2.98562,-0.01975167,-0.02578823,0.01727002,0.5560634,188,35,0,190,0, t,441242343,-701064666
10/6/2020, 4:00:07 ,0.03534576,-0.005846705,-2.973528,-0.002362174,0.0184657,0.02174367,0.5545724,188,35,0,190,0, t,441242343,-701064666
10/6/2020, 4:00:08 ,0.02801596,0.01050743,-2.956474,0.01827519,0.1278585,0.02856561,0.5533036,190,35,0,190,0, t,441242343,-701064666
10/6/2020, 4:00:09 ,0.03109553,0.002683498,-2.948643,-0.08635841,0.2032985,0.06994637,0.5249795,190,35,0,190,0, t,441242343,-701064666
10/6/2020, 4:00:10 ,0.0541254,-0.005651489,-2.943457,0.1149877,-0.07362193,-0.02734806,0.5079592,191,35,0,190,0, t,441242343,-701064666
10/6/2020, 4:00:11 ,0.02585319,0.003017783,-2.961733,0.06009652,0.08297893,-0.02824841,0.4888247,191,35,0,190,0, t,441242154,-701064743
10/6/2020, 4:00:12 ,0.05764047,-0.007975832,-3.05722,0.07069713,-0.1175791,-0.02977987,0.3855491,186,35,0,190,0, t,441242154,-701064743
10/6/2020, 4:00:13 ,0.05074815,-0.004518181,-3.02134,0.09622766,-0.08565554,0.02549922,0.3855491,186,35,0,190,0, t,441242154,-701064743
10/6/2020, 4:00:14 ,0.03648805,-0.007643986,-2.987291,0.09558295,-0.1238596,0.03119036,0.4813689,186,35,0,190,0, t,441242019,-701064726
10/6/2020, 4:00:15 ,0.02893842,-0.000970818,-2.923205,-0.004073108,0.0541386,0.05666177,0.4813689,186,35,0,190,0, t,441241977,-701064727
10/6/2020, 4:00:16 ,0.02893842,-0.000970818,-2.923205,-0.004073108,0.0541386,0.05666177,0.559891,193,35,0,190,0, t,441241977,-701064727
10/6/2020, 4:00:17 ,0.03783415,-0.01902457,-2.867456,-0.01319113,-0.1040643,0.05921988,0.559891,193,35,0,190,0, t,441241886,-701064730
10/6/2020, 4:00:18 ,0.03693577,-0.0170057,-2.822562,-0.04720267,-0.145078,0.05400903,0.5497845,195,35,0,190,0, t,441241850,-701064734
10/6/2020, 4:00:19 ,0.03998586,-0.008966379,-2.73643,0.05285745,-0.01669826,0.05657028,0.5475975,203,35,0,190,0, t,441241763,-701064754
10/6/2020, 4:00:20 ,0.03268735,-0.01394637,-2.691342,0.04299413,0.0254803,0.04566401,0.5404353,205,35,0,190,0, t,441241720,-701064773
10/6/2020, 4:00:23 ,0.0346506,-0.000857741,-2.666285,0.0535793,-0.01744999,-0.02014499,0.5387942,207,35,0,190,0, t,441241682,-701064787
10/6/2020, 4:00:24 ,0.04291993,-0.006140325,-2.679475,0.04592514,0.01820495,-0.01592229,0.5315514,207,35,0,190,0, t,441241548,-701064860
10/6/2020, 4:00:25 ,0.03774988,0.000916299,-2.718195,-0.008524505,0.0276416,-0.02794339,0.5474555,204,35,0,190,0, t,441241514,-701064875
10/6/2020, 4:00:26 ,0.04241104,-0.006485675,-2.733653,-5.66E-05,0.03883446,-0.02355166,0.5192581,204,35,0,190,0, t,441241483,-701064889
10/6/2020, 4:00:27 ,0.04040425,-0.009313125,-2.75017,-0.00054639,-0.120698,-0.04679665,0.5033064,203,35,0,190,0, t,441241450,-701064899
10/6/2020, 4:00:28 ,0.04391603,0.003961619,-2.784012,0.1189724,-0.009572584,-0.02993961,0.4739607,200,35,0,190,0, t,441241423,-701064903
10/6/2020, 4:00:29 ,0.04129195,-0.01795226,-2.78586,-0.0729415,-0.04168576,0.01209205,0.4674125,200,35,0,190,0, t,441241369,-701064903
10/6/2020, 4:00:30 ,0.04129195,-0.01795226,-2.78586,-0.0729415,-0.04168576,0.01209205,0.4629939,201,35,0,190,0, t,441241340,-701064915
10/6/2020, 4:00:31 ,0.03796171,0.002514802,-2.774409,-0.02273589,0.07713051,-0.003933667,0.4629939,201,35,0,190,0, t,441241303,-701064927
10/6/2020, 4:00:32 ,0.04225275,0.004107874,-2.781979,0.02942228,0.0888795,-0.02177384,0.5068573,201,35,0,190,0, t,441241267,-701064941
10/6/2020, 4:00:33 ,0.04515035,3.36E-05,-2.807531,-0.03354955,0.04199179,-0.004292487,0.507987,200,35,0,190,0, t,441241267,-701064941
10/6/2020, 4:00:34 ,0.04515035,3.36E-05,-2.807531,-0.03354955,0.04199179,-0.004292487,0.5258193,198,35,0,190,0, t,441241267,-701064941
10/6/2020, 4:00:35 ,0.04422279,-0.009811986,-2.825138,0.01857433,-0.0537852,0.001116384,0.5258193,198,35,0,190,0, t,441241267,-701064941
10/6/2020, 4:00:36 ,0.04422279,-0.009811986,-2.825138,0.01857433,-0.0537852,0.001116384,0.5709305,198,35,0,190,0, t,441241267,-701064941
10/6/2020, 4:00:38 ,0.03613097,-0.01486097,-2.826514,-0.08466312,-0.009027223,-0.01002873,0.5709305,198,35,0,190,0, t,441241037,-701064989
10/6/2020, 4:00:39 ,0.03807846,-0.01136904,-2.832612,-0.005651028,-0.07128681,-0.006083268,0.5568962,198,35,0,190,0, t,441240948,-701065003
10/6/2020, 4:00:41 ,0.03438532,-0.006404504,-2.79544,-0.003850874,0.02062611,0.03102502,0.5255917,197,35,0,190,0, t,441240904,-701065003
10/6/2020, 4:00:42 ,0.03438532,-0.006404504,-2.79544,-0.003850874,0.02062611,0.03102502,0.4791806,199,35,0,190,0, t,441240784,-701064997
10/6/2020, 4:00:44 ,0.03893633,-0.000734694,-2.737238,-0.0771084,-0.02999911,0.04292576,0.4776928,202,35,0,190,0, t,441240746,-701065000
10/6/2020, 4:00:45 ,0.0448369,0.002903983,-2.662883,0.1023502,-0.07272542,0.03899476,0.4893319,203,35,0,190,0, t,441240706,-701065002
10/6/2020, 4:00:46 ,0.03107863,-0.001210891,-2.528008,-0.02270101,-0.09027733,0.0495179,0.4582582,209,35,0,190,0, t,441240628,-701065023
10/6/2020, 4:00:47 ,0.02866929,0.00203808,-2.497092,0.05191042,0.005910261,0.04314437,0.5116944,215,35,0,190,0, t,441240592,-701065046
10/6/2020, 4:00:48 ,0.02866929,0.00203808,-2.497092,0.05191042,0.005910261,0.04314437,0.543363,216,35,0,190,0, t,441240530,-701065115
10/6/2020, 4:00:49 ,0.03482658,-0.009589594,-2.470019,-0.01911758,-0.1008154,-0.01135596,0.543363,216,35,0,190,0, t,441240530,-701065115
10/6/2020, 4:00:51 ,0.03482658,-0.009589594,-2.470019,-0.01911758,-0.1008154,-0.01135596,0.5346965,218,35,0,190,0, t,441240439,-701065248
10/6/2020, 4:00:52 ,0.04250931,0.002916511,-2.667924,0.01734384,0.01506137,-0.07749826,0.548374,212,35,0,190,0, t,441240439,-701065248
10/6/2020, 4:00:53 ,0.03758356,-0.005651657,-2.714526,-0.01288627,0.01719858,-0.07540914,0.5261058,207,35,0,190,0, t,441240439,-701065248
10/6/2020, 4:00:54 ,0.0383991,0.005032115,-2.763421,-0.02674292,0.01448343,-0.07248945,0.5035488,201,35,0,190,0, t,441240335,-701065351
10/6/2020, 4:00:55 ,0.03759693,-0.002244677,-2.812003,-0.05647527,0.01704287,-0.07385064,0.4946204,196,35,0,190,0, t,441240299,-701065379
10/6/2020, 4:00:56 ,0.04350298,-0.001155779,-2.941975,0.07989435,0.01035918,-0.08449496,0.4946204,196,35,0,190,0, t,441240299,-701065379
10/6/2020, 4:00:57 ,0.03581689,0.00033994,-2.974473,-0.06038146,0.03301069,-0.0428097,0.4373627,191,35,0,190,0, t,441240241,-701065413
10/6/2020, 4:00:58 ,0.03824129,0.007268731,-3.027658,-0.08293734,0.07651955,-0.0163164,0.4243335,188,35,0,190,0, t,441240210,-701065425
10/6/2020, 4:00:59 ,0.03432459,0.007407404,-3.039652,-0.03787399,0.02711079,-0.006352378,0.4522735,186,35,0,190,0, t,441240138,-701065435
10/6/2020, 4:01:00 ,0.03467777,-0.002919115,-3.049294,-0.03196239,0.02988326,0.005153787,0.4478678,185,35,0,190,0, t,441240138,-701065435
10/6/2020, 4:01:01 ,0.03467777,-0.002919115,-3.049294,-0.03196239,0.02988326,0.005153787,0.5031342,185,35,0,190,0, t,441240002,-701065463
10/6/2020, 4:01:02 ,0.04845755,-0.01652217,-3.019875,-0.003288609,-0.01821535,0.02271284,0.6137134,186,35,0,190,0, t,441239949,-701065483
10/6/2020, 4:01:03 ,0.04255683,-0.00480672,-3.006521,0.04985533,-0.05457234,0.005308987,0.6221662,187,35,0,190,0, t,441239908,-701065497
10/6/2020, 4:01:04 ,0.04316067,-0.008233562,-2.996912,-0.05135107,0.0311614,-0.001683811,0.617154,188,35,0,190,0, t,441239835,-701065528
10/6/2020, 4:01:05 ,0.0422805,-0.01174003,-3.009957,-0.04053994,0.04439969,-0.002301825,0.5424923,188,35,0,190,0, t,441239835,-701065528
10/6/2020, 4:01:06 ,0.04395104,-0.01176796,-3.01496,0.09907984,-0.06133462,-0.02610245,0.5038795,187,35,0,190,0, t,441239801,-701065539
10/6/2020, 4:01:08 ,0.02421861,0.007506426,-3.046116,-0.02980628,0.04855431,-0.004338419,0.4982734,187,35,0,190,0, t,441239801,-701065539
10/6/2020, 4:01:09 ,0.02421861,0.007506426,-3.046116,-0.02980628,0.04855431,-0.004338419,0.4903039,185,35,0,190,0, t,441239612,-701065584
10/6/2020, 4:01:10 ,0.0323339,-0.00955328,-3.067581,-0.01637168,0.006515888,-0.009394807,0.5150251,184,35,0,190,0, t,441239572,-701065590
10/6/2020, 4:01:11 ,0.0410398,-0.01105594,-3.076713,-0.009716847,-0.05811003,0.002606816,0.5150251,184,35,0,190,0, t,441239572,-701065590
10/6/2020, 4:01:12 ,0.04749531,-0.008210558,-3.068603,0.04626311,-0.05640556,0.00330719,0.5342388,183,35,0,190,0, t,441239572,-701065590
10/6/2020, 4:01:13 ,0.02923214,0.004569326,-3.063773,-0.009313445,0.07238676,0.001992312,0.5342388,183,35,0,190,0, t,441239459,-701065619
10/6/2020, 4:01:14 ,0.04932057,-0.008390188,-3.058726,0.03405408,-0.04984979,-0.007733609,0.4973477,184,35,0,190,0, t,441239459,-701065619
10/6/2020, 4:01:15 ,0.031944,-0.008479156,-3.061902,-0.02581622,-0.04032224,-0.007492552,0.4973477,184,35,0,190,0, t,441239393,-701065643
10/6/2020, 4:01:16 ,0.03506661,-0.01070227,-3.072528,-0.007467309,-0.01414883,-0.007806732,0.499598,184,35,0,190,0, t,441239393,-701065643
10/6/2020, 4:01:17 ,0.03509603,-0.003143512,-3.07773,-0.05992497,0.07221023,0.00557621,0.5232524,183,35,0,190,0, t,441239393,-701065643
10/6/2020, 4:01:19 ,0.03916698,-0.006511383,-3.087905,-0.03447712,-0.004282311,-0.00310371,0.5232524,183,35,0,190,0, t,441239393,-701065643
10/6/2020, 4:01:20 ,0.04222996,-0.0146751,-3.087471,0.02477401,-0.1089493,-0.006952364,0.4565801,182,35,0,190,0, t,441239393,-701065643
10/6/2020, 4:01:21 ,0.0341739,-0.000791211,-3.083435,-0.004935992,-0.02226355,0.002812713,0.5252697,183,35,0,190,0, t,441239098,-701065728
10/6/2020, 4:01:22 ,0.04522612,-0.006472781,-3.086045,-0.008650477,-0.02887964,4.98E-05,0.5252697,183,35,0,190,0, t,441239065,-701065741
10/6/2020, 4:01:23 ,0.04403886,-0.001867019,-3.087482,-0.01718222,-0.02532067,0.01004707,0.5176473,183,35,0,190,0, t,441239037,-701065753
10/6/2020, 4:01:24 ,0.04146016,-0.006926116,-3.07598,0.09017354,-0.04690329,-0.01433989,0.4719023,183,35,0,190,0, t,441239037,-701065753
10/6/2020, 4:01:25 ,0.04146016,-0.006926116,-3.07598,0.09017354,-0.04690329,-0.01433989,0.4900037,183,35,0,190,0, t,441238931,-701065802
10/6/2020, 4:01:26 ,0.03756174,-0.009554662,-3.086195,-0.004810426,-0.01436329,-0.01008908,0.568331,182,35,0,190,0, t,441238931,-701065802
10/6/2020, 4:01:28 ,0.03756174,-0.009554662,-3.086195,-0.004810426,-0.01436329,-0.01008908,0.568331,182,35,0,190,0, t,441238742,-701065857
10/6/2020, 4:01:29 ,0.04017721,-0.005507004,3.070778,0.05873906,-0.02836976,-0.02148749,0.568331,182,35,0,190,0, t,441238742,-701065857
10/6/2020, 4:01:30 ,0.04403868,-0.003342289,3.0517,-0.03786273,-0.03116484,0.006041764,0.5122774,175,35,0,190,0, t,441238742,-701065857
10/6/2020, 4:01:31 ,0.04403868,-0.003342289,3.0517,-0.03786273,-0.03116484,0.006041764,0.4700524,174,35,0,190,0, t,441238742,-701065857
10/6/2020, 4:01:32 ,0.03329981,-0.001255978,3.042773,-0.05499848,0.05141067,0.001675173,0.4700524,174,35,0,190,0, t,441238591,-701065888
10/6/2020, 4:01:33 ,0.03682256,-0.006258525,3.042205,-0.02662923,-0.004395947,0.01203561,0.4590134,174,35,0,190,0, t,441238591,-701065888
10/6/2020, 4:01:34 ,0.0346542,-0.001544494,3.049533,-0.0440019,0.04629517,0.008783726,0.4623404,174,35,0,190,0, t,441238591,-701065888
10/6/2020, 4:01:35 ,0.0353291,-0.01150861,3.067635,-0.04088835,-0.03306498,0.02805806,0.4685775,174,35,0,190,0, t,441238460,-701065883
10/6/2020, 4:01:36 ,0.0353291,-0.01150861,3.067635,-0.04088835,-0.03306498,0.02805806,0.5356889,176,35,0,190,0, t,441238460,-701065883
10/6/2020, 4:01:37 ,0.0377918,-0.004865229,3.114531,-0.04844174,0.0317489,0.03305313,0.5356889,176,35,0,190,0, t,441238460,-701065883
10/6/2020, 4:01:38 ,0.0377918,-0.004865229,3.114531,-0.04844174,0.0317489,0.03305313,0.5115061,178,35,0,190,0, t,441238261,-701065870
10/6/2020, 4:01:40 ,0.0377918,-0.004865229,3.114531,-0.04844174,0.0317489,0.03305313,0.5115061,178,35,0,190,0, t,441238199,-701065869
10/6/2020, 4:01:41 ,0.0377918,-0.004865229,3.114531,-0.04844174,0.0317489,0.03305313,0.4701973,188,35,0,190,0, t,441238164,-701065872
10/6/2020, 4:01:42 ,0.02542301,-0.005603593,-2.966651,-0.06270106,0.1781516,0.06958727,0.4701973,188,35,0,190,0, t,441238099,-701065881
10/6/2020, 4:01:43 ,0.02542301,-0.005603593,-2.966651,-0.06270106,0.1781516,0.06958727,0.480604,190,35,0,190,0, t,441238026,-701065896
10/6/2020, 4:01:44 ,0.02542301,-0.005603593,-2.966651,-0.06270106,0.1781516,0.06958727,0.480604,190,35,0,190,0, t,441237987,-701065905
10/6/2020, 4:01:45 ,0.03239211,-0.004970599,-2.898481,-0.02452914,0.05556738,0.004845611,0.480604,190,35,0,190,0, t,441237987,-701065905
10/6/2020, 4:01:46 ,0.04346069,-0.007992819,-2.893194,-0.01476467,0.04713389,0.01603969,0.5019948,193,35,0,190,0, t,441237987,-701065905
10/6/2020, 4:01:47 ,0.04346069,-0.007992819,-2.893194,-0.01476467,0.04713389,0.01603969,0.4939654,194,35,0,190,0, t,441237877,-701065923
10/6/2020, 4:01:48 ,0.03650621,0.00288295,-2.862996,-0.01232004,0.04014088,0.005973115,0.4939654,194,35,0,190,0, t,441237836,-701065933
10/6/2020, 4:01:50 ,0.03650621,0.00288295,-2.862996,-0.01232004,0.04014088,0.005973115,0.4928864,197,35,0,190,0, t,441237836,-701065933
10/6/2020, 4:01:51 ,0.03650621,0.00288295,-2.862996,-0.01232004,0.04014088,0.005973115,0.4928864,197,35,0,190,0, t,441237699,-701065954
10/6/2020, 4:01:52 ,0.03650621,0.00288295,-2.862996,-0.01232004,0.04014088,0.005973115,0.4937678,198,35,0,190,0, t,441237675,-701065959
10/6/2020, 4:01:53 ,0.03780514,-0.01519722,-2.804918,-0.0497702,-0.01176986,0.02547847,0.4399936,199,35,0,190,0, t,441237652,-701065965
10/6/2020, 4:01:54 ,0.04160374,0.000584759,-2.796448,0.01463508,-0.01625349,0.01172232,0.4708785,199,35,0,190,0, t,441237627,-701065968
10/6/2020, 4:01:55 ,0.03447716,-0.006879508,-2.760751,-0.04023112,-0.04027705,0.03987451,0.4626366,201,35,0,190,0, t,441237627,-701065968
10/6/2020, 4:01:56 ,0.03447716,-0.006879508,-2.760751,-0.04023112,-0.04027705,0.03987451,0.4758508,202,35,0,190,0, t,441237547,-701065989
10/6/2020, 4:01:57 ,0.03447716,-0.006879508,-2.760751,-0.04023112,-0.04027705,0.03987451,0.4758508,202,35,0,190,0, t,441237513,-701066000
10/6/2020, 4:01:58 ,0.03930518,0.00215454,-2.710839,-0.01966142,0.06942651,0.02111802,0.5312927,204,35,0,190,0, t,441237480,-701066012
10/6/2020, 4:01:59 ,0.04294214,-0.006861102,-2.698357,0.09532508,-0.06056553,0.002504699,0.5312927,204,35,0,190,0, t,441237447,-701066023
10/6/2020, 4:02:00 ,0.03773542,-0.0121161,-2.66879,0.04674296,-0.003846545,0.008436498,0.5457208,205,35,0,190,0, t,441237413,-701066031
10/6/2020, 4:02:01 ,0.03185334,-0.005430765,-2.66774,-0.03782721,-0.04417282,-0.01021013,0.5279773,207,35,0,190,0, t,441237413,-701066031
10/6/2020, 4:02:02 ,0.04787543,-0.006253257,-2.670191,0.001721603,-0.07167279,0.004212433,0.5279773,207,35,0,190,0, t,441237413,-701066031
10/6/2020, 4:02:03 ,0.04787543,-0.006253257,-2.670191,0.001721603,-0.07167279,0.004212433,0.4514232,207,35,0,190,0, t,441237231,-701066129
10/6/2020, 4:02:04 ,0.03781149,-0.003484484,-2.660626,-0.03827067,0.008176973,-0.000704856,0.4514232,207,35,0,190,0, t,441237231,-701066129
10/6/2020, 4:02:05 ,0.04169447,-0.005183227,-2.66731,-0.04318286,-0.01081919,-0.000912712,0.4514232,207,35,0,190,0, t,441237231,-701066129
10/6/2020, 4:02:06 ,0.03624632,-0.00422287,-2.669521,0.003263058,0.002690688,-2.33E-06,0.4895809,207,35,0,190,0, t,441237169,-701066173
10/6/2020, 4:02:07 ,0.04001483,-0.007326104,-2.676547,-0.03363374,-0.006135708,-0.01726786,0.5055789,207,35,0,190,0, t,441237140,-701066190
10/6/2020, 4:02:08 ,0.0400101,-0.003219537,-2.686509,0.008405635,-0.05606407,-0.02734489,0.5240125,206,35,0,190,0, t,441237140,-701066190
10/6/2020, 4:02:09 ,0.03320773,-0.003647156,-2.715046,-0.04377352,0.0371035,-0.04000165,0.5437397,206,35,0,190,0, t,441237075,-701066235
10/6/2020, 4:02:11 ,0.04137034,8.66E-05,-2.795865,0.001152216,0.01468912,-0.04709835,0.5230333,204,35,0,190,0, t,441237075,-701066235
10/6/2020, 4:02:14 ,0.03844827,0.003218837,-2.970186,-0.01896154,0.08249915,-0.04834207,0.5230333,204,35,0,190,0, t,441236945,-701066352
10/6/2020, 4:02:15 ,0.03768933,0.008014455,-3.017821,-0.02446537,0.04848401,-0.04386855,0.4823965,189,35,0,190,0, t,441236835,-701066423
10/6/2020, 4:02:18 ,0.03706077,0.006752014,-3.064229,-0.0100094,0.08652857,-0.05640819,0.5492222,176,35,0,190,0, t,441236793,-701066438
10/6/2020, 4:02:20 ,0.03709192,0.005910859,3.034162,-0.03766704,0.08267714,-0.01383322,0.5492222,176,35,0,190,0, t,441236793,-701066438
10/6/2020, 4:02:21 ,0.03709192,0.005910859,3.034162,-0.03766704,0.08267714,-0.01383322,0.5333473,173,35,0,190,0, t,441236454,-701066475
10/6/2020, 4:02:22 ,0.04377333,0.001954578,3.010784,0.01951682,0.02182214,0.0128244,0.5333473,173,35,0,190,0, t,441236454,-701066475
10/6/2020, 4:02:24 ,0.04528333,-0.001181722,3.052958,0.02593898,-0.04016105,0.02601905,0.5240601,172,35,0,190,0, t,441236454,-701066475
10/6/2020, 4:02:25 ,0.02469625,-0.008703727,3.136265,-0.003290048,0.05401561,0.04451726,0.5394519,174,35,0,190,0, t,441236454,-701066475
10/6/2020, 4:02:26 ,0.02469625,-0.008703727,3.136265,-0.003290048,0.05401561,0.04451726,0.5756348,179,35,0,190,0, t,441236219,-701066476
10/6/2020, 4:02:31 ,0.02469625,-0.008703727,3.136265,-0.003290048,0.05401561,0.04451726,0.5916476,182,35,0,190,0, t,441235986,-701066518
10/6/2020, 4:02:32 ,0.02469625,-0.008703727,3.136265,-0.003290048,0.05401561,0.04451726,0.5916476,182,35,0,190,0, t,441235950,-701066529
10/6/2020, 4:02:33 ,0.03465459,-0.005382746,-2.886266,0.02273645,0.03955797,0.008592582,0.4815247,194,35,0,190,0, t,441235950,-701066529
10/6/2020, 4:02:34 ,0.03833101,-0.01404805,-2.884767,-0.04241373,-0.00865785,-0.008163154,0.4815247,194,35,0,190,0, t,441235889,-701066559
10/6/2020, 4:02:35 ,0.03833101,-0.01404805,-2.884767,-0.04241373,-0.00865785,-0.008163154,0.4436029,193,35,0,190,0, t,441235868,-701066573
10/6/2020, 4:02:37 ,0.03201225,-0.001438405,-2.917008,0.001046862,0.04238297,0.0057828,0.4436029,193,35,0,190,0, t,441235868,-701066573
10/6/2020, 4:02:38 ,0.03505776,-0.01462633,-2.914958,0.01525267,-0.05685046,-0.003228068,0.4792491,192,35,0,190,0, t,441235868,-701066573
10/6/2020, 4:02:42 ,0.03505776,-0.01462633,-2.914958,0.01525267,-0.05685046,-0.003228068,0.5047631,192,35,0,190,0, t,441235616,-701066627
10/6/2020, 4:02:47 ,0.03505776,-0.01462633,-2.914958,0.01525267,-0.05685046,-0.003228068,0.5199456,196,35,0,190,0, t,441235616,-701066627
10/6/2020, 4:02:49 ,0.03447387,-0.000874419,-2.821108,0.007658605,0.04842808,0.007754926,0.5199456,196,35,0,190,0, t,441235616,-701066627
10/6/2020, 4:02:50 ,0.03447387,-0.000874419,-2.821108,0.007658605,0.04842808,0.007754926,0.4787035,198,35,0,190,0, t,441235616,-701066627
10/6/2020, 4:02:51 ,0.03447387,-0.000874419,-2.821108,0.007658605,0.04842808,0.007754926,0.4866095,198,35,0,190,0, t,441235616,-701066627
10/6/2020, 4:02:55 ,0.03447387,-0.000874419,-2.821108,0.007658605,0.04842808,0.007754926,0.4866095,198,35,0,190,0, t,441235115,-701066806
10/6/2020, 4:02:56 ,0.03447387,-0.000874419,-2.821108,0.007658605,0.04842808,0.007754926,0.4866095,198,35,0,190,0, t,441235037,-701066831
10/6/2020, 4:02:57 ,0.03447387,-0.000874419,-2.821108,0.007658605,0.04842808,0.007754926,0.4528247,199,35,0,190,0, t,441235037,-701066831
10/6/2020, 4:02:58 ,0.04008276,-0.007769272,-2.750661,0.02485354,0.01610825,0.02066602,0.4528247,199,35,0,190,0, t,441234994,-701066841
10/6/2020, 4:03:01 ,0.04008276,-0.007769272,-2.750661,0.02485354,0.01610825,0.02066602,0.4536208,203,35,0,190,0, t,441234952,-701066853
10/6/2020, 4:03:03 ,0.05025233,-0.004991692,-2.745373,-0.008375996,-0.03710557,-0.004857288,0.4536208,203,35,0,190,0, t,441234952,-701066853
10/6/2020, 4:03:04 ,0.05025233,-0.004991692,-2.745373,-0.008375996,-0.03710557,-0.004857288,0.4771008,202,35,0,190,0, t,441234723,-701066944
10/6/2020, 4:03:05 ,0.05025233,-0.004991692,-2.745373,-0.008375996,-0.03710557,-0.004857288,0.4771008,202,35,0,190,0, t,441234684,-701066962
10/6/2020, 4:03:06 ,0.04042188,-0.00358209,-2.788511,0.01330516,-0.002524531,-0.02624422,0.4771008,202,35,0,190,0, t,441234650,-701066978
10/6/2020, 4:03:08 ,0.04042188,-0.00358209,-2.788511,0.01330516,-0.002524531,-0.02624422,0.3787897,198,35,0,190,0, t,441234650,-701066978
10/6/2020, 4:03:10 ,0.03513359,-0.005001009,-2.794394,-0.02485089,-0.02277563,-0.006380072,0.3787897,198,35,0,190,0, t,441234650,-701066978
10/6/2020, 4:03:11 ,0.04661255,-0.009006925,-2.803078,0.009485847,0.0558668,-0.007986194,0.2062024,199,35,0,190,0, t,441234650,-701066978
10/6/2020, 4:03:12 ,0.03968584,-0.01540471,-2.814278,0.01911074,-0.03126062,-0.04065517,0.1701125,199,35,0,190,0, t,441234489,-701067078
10/6/2020, 4:03:13 ,0.042052,-0.01270204,-2.887322,-0.01427212,-0.04492441,-0.2576401,0.1214574,198,35,0,190,0, t,441234489,-701067078
10/6/2020, 4:03:14 ,0.042052,-0.01270204,-2.887322,-0.01427212,-0.04492441,-0.2576401,0.1214574,198,35,0,190,0, t,441234484,-701067110
10/6/2020, 4:03:15 ,0.03908382,0.001288399,1.446005,-0.05092057,-0.03608038,-0.5745758,0.1214574,198,35,0,190,0, t,441234484,-701067110
10/6/2020, 4:03:16 ,0.0289414,0.02454373,1.055372,-0.03578578,0.05708349,-0.2097273,0.2632545,82,35,0,190,0, t,441234484,-701067110
10/6/2020, 4:03:17 ,0.02678631,0.02479412,1.027208,-0.002475098,0.04494762,0.08422054,0.2787645,60,35,0,190,0, t,441234484,-701067110
10/6/2020, 4:03:18 ,0.02678631,0.02479412,1.027208,-0.002475098,0.04494762,0.08422054,0.2585322,58,35,0,190,0, t,441234553,-701067057
10/6/2020, 4:03:19 ,0.03032044,0.01061479,1.354219,0.02617175,0.07154799,0.2126666,0.3876476,71,35,0,190,0, t,441234576,-701067001
10/6/2020, 4:03:20 ,0.03476666,-0.003876425,1.454093,0.008361454,-0.01763318,0.211134,0.4473559,77,35,0,190,0, t,441234576,-701067001
10/6/2020, 4:03:21 ,0.03356118,0.002890199,1.645565,0.02963481,0.04326821,0.1794343,0.6061471,94,35,0,190,0, t,441234606,-701066801
10/6/2020, 4:03:22 ,0.02945042,-0.004807204,1.738494,0.01550115,0.04979008,0.1603625,0.6397387,99,35,0,190,0, t,441234606,-701066801
10/6/2020, 4:03:23 ,0.03534507,-0.009243596,1.887022,0.02775352,0.02152264,0.1042121,0.7250302,111,35,0,190,0, t,441234606,-701066801
10/6/2020, 4:03:24 ,0.0294086,-0.01180061,2.022419,-0.002628961,-0.001663465,0.03573103,0.7250302,111,35,0,190,0, t,441234606,-701066801
10/6/2020, 4:03:25 ,0.0294086,-0.01180061,2.022419,-0.002628961,-0.001663465,0.03573103,0.6793905,118,35,0,190,0, t,441234606,-701066801
10/6/2020, 4:03:26 ,0.03240646,-0.01773676,2.088224,0.005385151,-0.00827103,0.006798163,0.6605428,119,35,0,190,0, t,441234606,-701066801
10/6/2020, 4:03:28 ,0.03240646,-0.01773676,2.088224,0.005385151,-0.00827103,0.006798163,0.6410904,119,35,0,190,0, t,441234458,-701066199
10/6/2020, 4:03:29 ,0.03922466,-0.005587738,2.07355,0.007836781,0.003951628,-0.0232333,0.5437727,119,35,0,190,0, t,441234458,-701066199
10/6/2020, 4:03:30 ,0.04189792,-0.002371434,2.063943,0.01568424,0.05609757,-0.03694693,0.5218164,118,35,0,190,0, t,441234413,-701066106
10/6/2020, 4:03:33 ,0.04403428,-0.007356536,1.958354,0.02840758,-0.08706206,-0.02870726,0.513885,116,35,0,190,0, t,441234391,-701066055
10/6/2020, 4:03:34 ,0.04457083,0.002425421,1.920272,0.0150197,0.05083643,-0.0398154,0.4747067,112,35,0,190,0, t,441234391,-701066055
10/6/2020, 4:03:35 ,0.04457083,0.002425421,1.920272,0.0150197,0.05083643,-0.0398154,0.4650366,110,35,0,190,0, t,441234276,-701065723
10/6/2020, 4:03:37 ,0.04457083,0.002425421,1.920272,0.0150197,0.05083643,-0.0398154,0.4650366,110,35,0,190,0, t,441234250,-701065621
10/6/2020, 4:03:40 ,0.03963018,-0.004471876,1.825901,0.01447526,0.08788054,-0.01032856,0.4744162,105,35,0,190,0, t,441234250,-701065621
10/6/2020, 4:03:41 ,0.03910555,-0.01776257,1.823874,-0.03359197,-0.1561053,0.009528447,0.4817301,104,35,0,190,0, t,441234210,-701065389
10/6/2020, 4:03:42 ,0.04406753,-0.004600119,1.808878,0.03094744,-0.007368039,-0.01179462,0.4678468,104,35,0,190,0, t,441234203,-701065346
10/6/2020, 4:03:43 ,0.03809231,-0.002925817,1.807448,0.0156089,0.003722306,-0.01037808,0.4897484,103,35,0,190,0, t,441234200,-701065300
10/6/2020, 4:03:44 ,0.04094018,-0.003440965,1.805239,-0.01705049,0.03630682,0.001465376,0.5074035,103,35,0,190,0, t,441234194,-701065254
10/6/2020, 4:03:45 ,0.03656746,-0.01348702,1.808909,0.01120595,-0.04563701,0.01256332,0.508936,103,35,0,190,0, t,441234187,-701065153
10/6/2020, 4:03:46 ,0.03908943,-0.003031261,1.814831,0.01709557,-0.04949749,-0.001747629,0.5054111,103,35,0,190,0, t,441234186,-701065104
10/6/2020, 4:03:47 ,0.0409559,-0.002495397,1.830122,0.02054711,0.0641129,-0.0120213,0.5054111,103,35,0,190,0, t,441234186,-701065104
10/6/2020, 4:03:48 ,0.03974029,-0.01472231,1.836355,0.001787354,-0.03906173,0.01050441,0.5092497,104,35,0,190,0, t,441234177,-701064996
10/6/2020, 4:03:49 ,0.04201157,-0.002880685,1.841937,0.01831726,-0.01309014,-0.002891002,0.528222,105,35,0,190,0, t,441234170,-701064875
10/6/2020, 4:03:50 ,0.04093526,-4.33E-05,1.851278,-0.007642316,0.05181944,0.007786115,0.5327578,105,35,0,190,0, t,441234166,-701064818
10/6/2020, 4:03:51 ,0.03791363,-0.01328725,1.852906,0.02486766,0.01275093,-0.03356949,0.5326781,106,35,0,190,0, t,441234166,-701064818
10/6/2020, 4:03:52 ,0.03847995,-0.02149634,1.835025,-0.01452948,0.02295822,0.02020257,0.46485,105,35,0,190,0, t,441234163,-701064710
10/6/2020, 4:03:53 ,0.04188616,-0.02062642,1.82321,-0.001722696,-0.01019672,-0.009902154,0.3984296,105,35,0,190,0, t,441234165,-701064674
10/6/2020, 4:03:54 ,0.04351011,-0.01277364,1.823846,0.01391201,-0.01641854,0.007530522,0.2602094,104,35,0,190,0, t,441234163,-701064646
10/6/2020, 4:03:55 ,0.04165019,0.002775561,1.831081,0.01122968,0.008986108,0.01222957,0.2140347,104,35,0,190,0, t,441234163,-701064646
10/6/2020, 4:03:56 ,0.04911865,-0.01149297,1.56786,-0.0495543,0.01993746,-0.7070702,0.1598186,105,35,0,190,0, t,441234168,-701064603
10/6/2020, 4:03:57 ,0.05340929,-0.004229803,0.8776886,-0.04260131,0.000259518,-1.097827,0.0473013,50,35,0,190,0, t,441234170,-701064606
10/6/2020, 4:03:58 ,0.03537994,0.03245224,-0.1856679,-0.01974852,0.09500002,-0.4809304,0.1206684,13,35,0,190,0, t,441234170,-701064606
10/6/2020, 4:03:59 ,0.02867559,0.02523356,-0.4314267,-0.0239743,0.09663315,-0.2822443,0.157636,335,35,0,190,0, t,441234188,-701064612
10/6/2020, 4:04:00 ,0.03015226,0.00513212,-0.5463543,-0.008447598,-0.04534624,-0.01739734,0.1419285,328,35,0,190,0, t,441234217,-701064631
10/6/2020, 4:04:01 ,0.03061693,0.01618956,-0.4553694,-0.01030588,0.01143573,0.1476909,0.3241801,333,35,0,190,0, t,441234217,-701064631
10/6/2020, 4:04:02 ,0.03063167,0.005736433,-0.3423754,0.01303027,0.01427601,0.2067514,0.448233,340,35,0,190,0, t,441234317,-701064701
10/6/2020, 4:04:03 ,0.02988626,-0.003976483,-0.03308768,0.01227973,-0.02300157,0.1758496,0.6063505,352,35,0,190,0, t,441234375,-701064735
10/6/2020, 4:04:04 ,0.02949161,-0.009719901,0.04523439,-0.00190078,-0.08170292,0.1943816,0.6648716,358,35,0,190,0, t,441234445,-701064762
10/6/2020, 4:04:05 ,0.03136735,-0.01467834,0.1823837,-0.01959206,-0.04988759,0.1808317,0.7613623,10,35,0,190,0, t,441234499,-701064775
10/6/2020, 4:04:06 ,0.03145244,-0.01749317,0.3031562,0.05060731,-0.01988921,0.1459853,0.7564204,17,35,0,190,0, t,441234613,-701064785
