Date, Time, mavlink_attitude_t.roll, mavlink_attitude_t.pitch, mavlink_attitude_t.yaw, mavlink_attitude_t.rollspeed, mavlink_attitude_t.pitchspeed, mavlink_attitude_t.yawspeed, mavlink_vfr_hud_t.groundspeed, mavlink_vfr_hud_t.heading, mavlink_mission_request_t.seq, mavlink_mission_request_t.mission_type, mavlink_mission_request_t.target_component, mavlink_mission_item_int_t.current, mavlink_mission_count_t.count, mavlink_global_position_int_t.lat, mavlink_global_position_int_t.lon
10/6/2020, 3:48:47 , 0.05115411, -0.08767428, 2.118765, -0.002967448, -0.0008997368, -0.003325646, 0.045651, 220, 33, 0, 190, 0, t, 444452713, -696007526
10/6/2020, 3:48:47 , 0.05115411, -0.08767428, 2.118765, -0.002967448, -0.0008997368, -0.003325646, 0.376, 121, 33, 0, 190, 0, t, 444452713, -696007526
10/6/2020, 3:48:47 , 0.05113455, -0.08770623, 2.118627, -0.001956735, -0.0005777529, -0.001759022, 0.376, 121, 33, 0, 190, 0, t, 444452713, -696007526
10/6/2020, 3:48:47 , 0.05113455, -0.08770623, 2.118627, -0.001956735, -0.0005777529, -0.001759022, 0.341, 121, 33, 0, 190, 0, t, 444452713, -696007526
10/6/2020, 3:48:47 , 0.05113455, -0.08770623, 2.118627, -0.001956735, -0.0005777529, -0.001759022, 0.341, 121, 33, 0, 190, 0, t, 441255230, -701060902
10/6/2020, 3:48:47 , 0.05109652, -0.08777358, 2.118391, -0.001150491, -0.001845132, -0.001845888, 0.341, 121, 33, 0, 190, 0, t, 441255230, -701060902
10/6/2020, 3:48:47 , 0.05109652, -0.08777358, 2.118391, -0.001150491, -0.001845132, -0.001845888, 0.396, 121, 33, 0, 190, 0, t, 441255230, -701060902
10/6/2020, 3:48:47 , 0.05122275, -0.08777735, 2.118268, 0.001913687, -0.001316119, -0.002120811, 0.396, 121, 33, 0, 190, 0, t, 441255230, -701060902
10/6/2020, 3:48:47 , 0.05122275, -0.08777735, 2.118268, 0.001913687, -0.001316119, -0.002120811, 0.657, 121, 33, 0, 190, 0, t, 441255230, -701060902
10/6/2020, 3:48:47 , 0.05122275, -0.08777735, 2.118268, 0.001913687, -0.001316119, -0.002120811, 0.657, 121, 33, 0, 190, 0, t, 441255678, -701061318
10/6/2020, 3:48:48 , 0.05128339, -0.08792549, 2.118107, -0.001530397, -0.0003964994, -0.001648095, 0.657, 121, 33, 0, 190, 0, t, 441255678, -701061318
10/6/2020, 3:48:48 , 0.05128339, -0.08792549, 2.118107, -0.001530397, -0.0003964994, -0.001648095, 0.353, 121, 33, 0, 190, 0, t, 441255678, -701061318
10/6/2020, 3:48:48 , 0.0512284, -0.08801766, 2.117379, -0.001411774, -0.0001903758, -0.003438164, 0.353, 121, 33, 0, 190, 0, t, 441255678, -701061318
10/6/2020, 3:48:48 , 0.0512284, -0.08801766, 2.117379, -0.001411774, -0.0001903758, -0.003438164, 0.366, 121, 33, 0, 190, 0, t, 441255678, -701061318
10/6/2020, 3:48:48 , 0.0512284, -0.08801766, 2.117379, -0.001411774, -0.0001903758, -0.003438164, 0.366, 121, 33, 0, 190, 0, t, 441257256, -701062765
10/6/2020, 3:48:48 , 0.05118471, -0.08806363, 2.117051, -0.001352407, -0.001065605, -0.001650102, 0.366, 121, 33, 0, 190, 0, t, 441257256, -701062765
10/6/2020, 3:48:48 , 0.05118471, -0.08806363, 2.117051, -0.001352407, -0.001065605, -0.001650102, 0.242, 121, 33, 0, 190, 0, t, 441257256, -701062765
10/6/2020, 3:48:48 , 0.05119349, -0.08800883, 2.116559, -0.002526036, 0.0003639185, -0.003460343, 0.242, 121, 33, 0, 190, 0, t, 441257256, -701062765
10/6/2020, 3:48:48 , 0.05119349, -0.08800883, 2.116559, -0.002526036, 0.0003639185, -0.003460343, 0.215, 121, 33, 0, 190, 0, t, 441257256, -701062765
10/6/2020, 3:48:49 , 0.05119349, -0.08800883, 2.116559, -0.002526036, 0.0003639185, -0.003460343, 0.215, 121, 33, 0, 190, 0, t, 441258662, -701064045
10/6/2020, 3:48:49 , 0.05112591, -0.08804393, 2.116161, -0.001974667, -0.0005172153, -0.0009825891, 0.215, 121, 33, 0, 190, 0, t, 441258662, -701064045
10/6/2020, 3:48:49 , 0.05112591, -0.08804393, 2.116161, -0.001974667, -0.0005172153, -0.0009825891, 0.476, 121, 33, 0, 190, 0, t, 441258662, -701064045
10/6/2020, 3:48:49 , 0.05112591, -0.08804393, 2.116161, -0.001974667, -0.0005172153, -0.0009825891, 0.476, 121, 33, 0, 190, 0, t, 441259234, -701064536
10/6/2020, 3:48:49 , 0.0509419, -0.08806183, 2.116102, -0.0008944233, -0.001250428, -0.003229034, 0.476, 121, 33, 0, 190, 0, t, 441259234, -701064536
10/6/2020, 3:48:49 , 0.0509419, -0.08806183, 2.116102, -0.0008944233, -0.001250428, -0.003229034, 0.265, 121, 33, 0, 190, 0, t, 441259234, -701064536
10/6/2020, 3:48:49 , 0.05095381, -0.08810756, 2.115692, -0.00353612, -0.0001986199, -0.003772213, 0.265, 121, 33, 0, 190, 0, t, 441259234, -701064536
10/6/2020, 3:48:49 , 0.05095381, -0.08810756, 2.115692, -0.00353612, -0.0001986199, -0.003772213, 0.485, 121, 33, 0, 190, 0, t, 441259234, -701064536
10/6/2020, 3:48:49 , 0.05095381, -0.08810756, 2.115692, -0.00353612, -0.0001986199, -0.003772213, 0.485, 121, 33, 0, 190, 0, t, 441259423, -701064678
10/6/2020, 3:48:50 , 0.05090463, -0.08818512, 2.115536, -0.0005200536, -0.0005276161, -0.002029131, 0.485, 121, 33, 0, 190, 0, t, 441259423, -701064678
10/6/2020, 3:48:50 , 0.05090463, -0.08818512, 2.115536, -0.0005200536, -0.0005276161, -0.002029131, 0.386, 121, 33, 0, 190, 0, t, 441259423, -701064678
10/6/2020, 3:48:50 , 0.05087361, -0.08815368, 2.115333, -0.001761913, -0.001079155, -0.001870644, 0.386, 121, 33, 0, 190, 0, t, 441259423, -701064678
10/6/2020, 3:48:50 , 0.05087361, -0.08815368, 2.115333, -0.001761913, -0.001079155, -0.001870644, 0.148, 121, 33, 0, 190, 0, t, 441259423, -701064678
10/6/2020, 3:48:50 , 0.05087361, -0.08815368, 2.115333, -0.001761913, -0.001079155, -0.001870644, 0.148, 121, 33, 0, 190, 0, t, 441258850, -701064115
10/6/2020, 3:48:51 , 0.05083888, -0.08818206, 2.115012, -0.000817416, -0.00131204, -0.001848838, 0.148, 121, 33, 0, 190, 0, t, 441258850, -701064115
10/6/2020, 3:48:51 , 0.05083888, -0.08818206, 2.115012, -0.000817416, -0.00131204, -0.001848838, 0.452, 121, 33, 0, 190, 0, t, 441258850, -701064115
10/6/2020, 3:48:51 , 0.05083888, -0.08818206, 2.115012, -0.000817416, -0.00131204, -0.001848838, 0.452, 121, 33, 0, 190, 0, t, 441254234, -701059817
10/6/2020, 3:48:52 , 0.05094005, -0.0881367, 2.114876, -1.065829E-05, -0.0002089192, -0.001381285, 0.452, 121, 33, 0, 190, 0, t, 441254234, -701059817
10/6/2020, 3:48:52 , 0.05094005, -0.0881367, 2.114876, -1.065829E-05, -0.0002089192, -0.001381285, 0.369, 121, 33, 0, 190, 0, t, 441254234, -701059817
10/6/2020, 3:48:52 , 0.05071793, -0.08828038, 2.114701, -0.002661315, -0.002265112, -0.005758557, 0.369, 121, 33, 0, 190, 0, t, 441254234, -701059817
10/6/2020, 3:48:52 , 0.05071793, -0.08828038, 2.114701, -0.002661315, -0.002265112, -0.005758557, 0.208, 121, 33, 0, 190, 0, t, 441254234, -701059817
10/6/2020, 3:48:52 , 0.05071793, -0.08828038, 2.114701, -0.002661315, -0.002265112, -0.005758557, 0.208, 121, 33, 0, 190, 0, t, 441254148, -701059761
10/6/2020, 3:48:52 , 0.05071793, -0.08828038, 2.114701, -0.002661315, -0.002265112, -0.005758557, 0.239, 121, 33, 0, 190, 0, t, 441254148, -701059761
10/6/2020, 3:48:52 , 0.05071793, -0.08828038, 2.114701, -0.002661315, -0.002265112, -0.005758557, 0.239, 121, 33, 0, 190, 0, t, 441253984, -701059700
10/6/2020, 3:48:53 , 0.05051256, -0.08824015, 2.114376, -0.002197803, -0.0019591, -0.001417568, 0.239, 121, 33, 0, 190, 0, t, 441253984, -701059700
10/6/2020, 3:48:53 , 0.05051256, -0.08824015, 2.114376, -0.002197803, -0.0019591, -0.001417568, 0.132, 121, 33, 0, 190, 0, t, 441253984, -701059700
10/6/2020, 3:48:53 , 0.05051256, -0.08824015, 2.114376, -0.002197803, -0.0019591, -0.001417568, 0.132, 121, 33, 0, 190, 0, t, 441254012, -701059771
10/6/2020, 3:48:53 , 0.05060403, -0.08823082, 2.114221, -0.000710323, -0.001220903, -0.003327003, 0.132, 121, 33, 0, 190, 0, t, 441254012, -701059771
10/6/2020, 3:48:53 , 0.05060403, -0.08823082, 2.114221, -0.000710323, -0.001220903, -0.003327003, 0.145, 121, 33, 0, 190, 0, t, 441254012, -701059771
10/6/2020, 3:48:57 , 0.05060403, -0.08823082, 2.114221, -0.000710323, -0.001220903, -0.003327003, 0.145, 121, 33, 0, 190, 0, t, 441252491, -701058489
10/6/2020, 3:48:57 , 0.05008462, -0.08878502, 2.113847, 6.83486E-05, -7.218681E-05, 0.0001655091, 0.145, 121, 33, 0, 190, 0, t, 441252491, -701058489
10/6/2020, 3:48:57 , 0.05008462, -0.08878502, 2.113847, 6.83486E-05, -7.218681E-05, 0.0001655091, 0.17, 121, 33, 0, 190, 0, t, 441252491, -701058489
10/6/2020, 3:48:59 , 0.04987409, -0.08916121, 2.114887, -0.0001853751, 0.001759352, -0.001034016, 0.17, 121, 33, 0, 190, 0, t, 441252491, -701058489
10/6/2020, 3:48:59 , 0.04987409, -0.08916121, 2.114887, -0.0001853751, 0.001759352, -0.001034016, 0.242, 121, 33, 0, 190, 0, t, 441252491, -701058489
10/6/2020, 3:49:02 , 0.04987409, -0.08916121, 2.114887, -0.0001853751, 0.001759352, -0.001034016, 0.242, 121, 33, 0, 190, 0, t, 441252959, -701059104
10/6/2020, 3:49:03 , 0.04890377, -0.09066941, 2.115643, -0.00040995, -0.001956258, -0.003328064, 0.242, 121, 33, 0, 190, 0, t, 441252959, -701059104
10/6/2020, 3:49:08 , 0.04890377, -0.09066941, 2.115643, -0.00040995, -0.001956258, -0.003328064, 0.242, 121, 33, 0, 190, 0, t, 441251322, -701057675
10/6/2020, 3:49:09 , 0.03832791, -0.0978063, 2.118221, -0.003212845, -0.001996498, 3.933161E-05, 0.242, 121, 33, 0, 190, 0, t, 441251322, -701057675
10/6/2020, 3:49:09 , 0.03832791, -0.0978063, 2.118221, -0.003212845, -0.001996498, 3.933161E-05, 0.387, 121, 33, 0, 190, 0, t, 441251322, -701057675
10/6/2020, 3:49:13 , 0.03620299, -0.09416489, 2.140063, 0.0004239508, -0.001689771, -0.002085283, 0.387, 121, 33, 0, 190, 0, t, 441251322, -701057675
10/6/2020, 3:49:13 , 0.03620299, -0.09416489, 2.140063, 0.0004239508, -0.001689771, -0.002085283, 0.266, 122, 33, 0, 190, 0, t, 441251322, -701057675
10/6/2020, 3:49:13 , 0.03620299, -0.09416489, 2.140063, 0.0004239508, -0.001689771, -0.002085283, 0.266, 122, 33, 0, 190, 0, t, 441250756, -701056989
10/6/2020, 3:49:18 , 0.03549783, -0.09924341, 2.150739, 0.001632127, -0.001509064, -0.0006904062, 0.266, 122, 33, 0, 190, 0, t, 441250756, -701056989
10/6/2020, 3:49:18 , 0.03549783, -0.09924341, 2.150739, 0.001632127, -0.001509064, -0.0006904062, 0.554, 123, 33, 0, 190, 0, t, 441250756, -701056989
10/6/2020, 3:49:19 , 0.03549783, -0.09924341, 2.150739, 0.001632127, -0.001509064, -0.0006904062, 0.554, 123, 33, 0, 190, 0, t, 441250362, -701056454
10/6/2020, 3:49:20 , 0.05143885, -0.08919647, 2.149314, -0.002670928, -0.001172452, -0.001088222, 0.554, 123, 33, 0, 190, 0, t, 441250362, -701056454
10/6/2020, 3:49:20 , 0.05143885, -0.08919647, 2.149314, -0.002670928, -0.001172452, -0.001088222, 0.636, 123, 33, 0, 190, 0, t, 441250362, -701056454
10/6/2020, 3:49:20 , 0.05143885, -0.08919647, 2.149314, -0.002670928, -0.001172452, -0.001088222, 0.636, 123, 33, 0, 190, 0, t, 441250335, -701056410
10/6/2020, 3:49:20 , 0.05070691, -0.09037913, 2.149218, -0.001926466, -0.0002839726, -0.001525933, 0.636, 123, 33, 0, 190, 0, t, 441250335, -701056410
10/6/2020, 3:49:21 , 0.05070691, -0.09037913, 2.149218, -0.001926466, -0.0002839726, -0.001525933, 0.521, 123, 33, 0, 190, 0, t, 441250335, -701056410
10/6/2020, 3:49:21 , 0.04535611, -0.0933729, 2.14937, -0.0004723538, -0.0002448934, 0.001621438, 0.521, 123, 33, 0, 190, 0, t, 441250335, -701056410
10/6/2020, 3:49:21 , 0.04535611, -0.0933729, 2.14937, -0.0004723538, -0.0002448934, 0.001621438, 0.596, 123, 33, 0, 190, 0, t, 441250335, -701056410
10/6/2020, 3:49:21 , 0.04535611, -0.0933729, 2.14937, -0.0004723538, -0.0002448934, 0.001621438, 0.596, 123, 33, 0, 190, 0, t, 441250364, -701056390
10/6/2020, 3:49:31 , 0.03983231, -0.09399796, 2.151202, -0.0006191791, -0.001263396, -0.0006700084, 0.596, 123, 33, 0, 190, 0, t, 441250364, -701056390
10/6/2020, 3:49:31 , 0.03983231, -0.09399796, 2.151202, -0.0006191791, -0.001263396, -0.0006700084, 0.44, 123, 33, 0, 190, 0, t, 441250364, -701056390
10/6/2020, 3:49:32 , 0.03983231, -0.09399796, 2.151202, -0.0006191791, -0.001263396, -0.0006700084, 0.44, 123, 33, 0, 190, 0, t, 441250612, -701056367
10/6/2020, 3:49:32 , 0.03983231, -0.09399796, 2.151202, -0.0006191791, -0.001263396, -0.0006700084, 0.44, 123, 33, 0, 190, 0, t, 441250612, -701056367
10/6/2020, 3:49:33 , 0.03983231, -0.09399796, 2.151202, -0.0006191791, -0.001263396, -0.0006700084, 0.44, 123, 33, 0, 190, 0, t, 441250612, -701056367
10/6/2020, 3:49:33 , 0.03983231, -0.09399796, 2.151202, -0.0006191791, -0.001263396, -0.0006700084, 0.44, 123, 33, 0, 190, 0, t, 441250583, -701056343
10/6/2020, 3:49:35 , 0.0425653, -0.0960767, 2.148526, 0.0005050758, 0.001711587, -0.002780246, 0.44, 123, 33, 0, 190, 0, t, 441250583, -701056343
10/6/2020, 3:49:35 , 0.0425653, -0.0960767, 2.148526, 0.0005050758, 0.001711587, -0.002780246, 0.8060001, 123, 33, 0, 190, 0, t, 441250583, -701056343
10/6/2020, 3:49:35 , 0.0425653, -0.0960767, 2.148526, 0.0005050758, 0.001711587, -0.002780246, 0.8060001, 123, 33, 0, 190, 0, t, 441250740, -701056407
10/6/2020, 3:49:35 , 0.03714701, -0.09115507, 2.146403, 0.001877488, -0.001570281, -0.001233222, 0.8060001, 123, 33, 0, 190, 0, t, 441250740, -701056407
10/6/2020, 3:49:35 , 0.03714701, -0.09115507, 2.146403, 0.001877488, -0.001570281, -0.001233222, 0.425, 122, 33, 0, 190, 0, t, 441250740, -701056407
10/6/2020, 3:49:36 , 0.03714701, -0.09115507, 2.146403, 0.001877488, -0.001570281, -0.001233222, 0.425, 122, 33, 0, 190, 0, t, 441250715, -701056346
10/6/2020, 3:49:36 , 0.04729257, -0.08936742, 2.147108, 0.001496372, -0.01059154, 0.002054084, 0.425, 122, 33, 0, 190, 0, t, 441250715, -701056346
10/6/2020, 3:49:36 , 0.04729257, -0.08936742, 2.147108, 0.001496372, -0.01059154, 0.002054084, 0.5840001, 123, 33, 0, 190, 0, t, 441250715, -701056346
10/6/2020, 3:49:36 , 0.04780578, -0.09189757, 2.142283, 0.001867898, 0.0004015164, -0.002097527, 0.5840001, 123, 33, 0, 190, 0, t, 441250715, -701056346
10/6/2020, 3:49:36 , 0.04780578, -0.09189757, 2.142283, 0.001867898, 0.0004015164, -0.002097527, 0.151, 122, 33, 0, 190, 0, t, 441250715, -701056346
10/6/2020, 3:49:36 , 0.04780578, -0.09189757, 2.142283, 0.001867898, 0.0004015164, -0.002097527, 0.151, 122, 33, 0, 190, 0, t, 441250801, -701056458
10/6/2020, 3:49:37 , 0.04665373, -0.08538966, 2.140177, 0.002033274, -0.0007173098, -0.0004489552, 0.151, 122, 33, 0, 190, 0, t, 441250801, -701056458
10/6/2020, 3:49:37 , 0.04665373, -0.08538966, 2.140177, 0.002033274, -0.0007173098, -0.0004489552, 0.19, 122, 33, 0, 190, 0, t, 441250801, -701056458
10/6/2020, 3:49:38 , 0.04665373, -0.08538966, 2.140177, 0.002033274, -0.0007173098, -0.0004489552, 0.19, 122, 33, 0, 190, 0, t, 441250867, -701056510
10/6/2020, 3:49:38 , 0.03974605, -0.09027147, 2.138844, 0.0004884899, 0.003530024, -0.002894821, 0.19, 122, 33, 0, 190, 0, t, 441250867, -701056510
10/6/2020, 3:49:38 , 0.03974605, -0.09027147, 2.138844, 0.0004884899, 0.003530024, -0.002894821, 0.175, 122, 33, 0, 190, 0, t, 441250867, -701056510
10/6/2020, 3:49:39 , 0.03974605, -0.09027147, 2.138844, 0.0004884899, 0.003530024, -0.002894821, 0.175, 122, 33, 0, 190, 0, t, 441250961, -701056537
10/6/2020, 3:49:39 , 0.03892874, -0.09713512, 2.1402, -0.002318031, -0.001208127, 0.0001177192, 0.175, 122, 33, 0, 190, 0, t, 441250961, -701056537
10/6/2020, 3:49:39 , 0.03892874, -0.09713512, 2.1402, -0.002318031, -0.001208127, 0.0001177192, 0.248, 122, 33, 0, 190, 0, t, 441250961, -701056537
10/6/2020, 3:49:40 , 0.03892874, -0.09713512, 2.1402, -0.002318031, -0.001208127, 0.0001177192, 0.248, 122, 33, 0, 190, 0, t, 441251017, -701056572
10/6/2020, 3:49:40 , 0.04371863, -0.09265956, 2.140502, 0.004124945, -0.005052489, -0.002046192, 0.248, 122, 33, 0, 190, 0, t, 441251017, -701056572
10/6/2020, 3:49:40 , 0.04371863, -0.09265956, 2.140502, 0.004124945, -0.005052489, -0.002046192, 0.372, 122, 33, 0, 190, 0, t, 441251017, -701056572
10/6/2020, 3:49:41 , 0.05018714, -0.09012866, 2.139904, -0.002018311, 0.000511176, -0.003642261, 0.372, 122, 33, 0, 190, 0, t, 441251017, -701056572
10/6/2020, 3:49:41 , 0.05018714, -0.09012866, 2.139904, -0.002018311, 0.000511176, -0.003642261, 0.428, 122, 33, 0, 190, 0, t, 441251017, -701056572
10/6/2020, 3:49:41 , 0.05018714, -0.09012866, 2.139904, -0.002018311, 0.000511176, -0.003642261, 0.428, 122, 33, 0, 190, 0, t, 441251129, -701056713
10/6/2020, 3:49:42 , 0.04617748, -0.09188882, 2.13902, 0.0002379408, 0.01367478, 0.000353938, 0.428, 122, 33, 0, 190, 0, t, 441251129, -701056713
10/6/2020, 3:49:42 , 0.04617748, -0.09188882, 2.13902, 0.0002379408, 0.01367478, 0.000353938, 0.443, 122, 33, 0, 190, 0, t, 441251129, -701056713
10/6/2020, 3:49:42 , 0.04617748, -0.09188882, 2.13902, 0.0002379408, 0.01367478, 0.000353938, 0.443, 122, 33, 0, 190, 0, t, 441251144, -701056766
10/6/2020, 3:49:42 , 0.05063048, -0.08237888, 2.137677, -0.0007746154, 0.001013974, -0.00193073, 0.443, 122, 33, 0, 190, 0, t, 441251144, -701056766
10/6/2020, 3:49:42 , 0.05063048, -0.08237888, 2.137677, -0.0007746154, 0.001013974, -0.00193073, 0.469, 122, 33, 0, 190, 0, t, 441251144, -701056766
10/6/2020, 3:49:43 , 0.05063048, -0.08237888, 2.137677, -0.0007746154, 0.001013974, -0.00193073, 0.469, 122, 33, 0, 190, 0, t, 441251103, -701056814
10/6/2020, 3:49:43 , 0.04030384, -0.09334654, 2.138172, -0.001633684, 0.0001041826, -0.003653269, 0.469, 122, 33, 0, 190, 0, t, 441251103, -701056814
10/6/2020, 3:49:43 , 0.04030384, -0.09334654, 2.138172, -0.001633684, 0.0001041826, -0.003653269, 0.298, 122, 33, 0, 190, 0, t, 441251103, -701056814
10/6/2020, 3:49:44 , 0.03937009, -0.08886719, 2.140092, -0.002457018, -0.001874678, -0.002601197, 0.298, 122, 33, 0, 190, 0, t, 441251103, -701056814
10/6/2020, 3:49:44 , 0.03937009, -0.08886719, 2.140092, -0.002457018, -0.001874678, -0.002601197, 0.071, 122, 33, 0, 190, 0, t, 441251103, -701056814
10/6/2020, 3:49:44 , 0.03937009, -0.08886719, 2.140092, -0.002457018, -0.001874678, -0.002601197, 0.071, 122, 33, 0, 190, 0, t, 441251059, -701056875
10/6/2020, 3:49:45 , 0.04015999, -0.08848286, 2.139764, -0.0001652916, -0.0003801316, 0.0002274308, 0.071, 122, 33, 0, 190, 0, t, 441251059, -701056875
10/6/2020, 3:49:45 , 0.04015999, -0.08848286, 2.139764, -0.0001652916, -0.0003801316, 0.0002274308, 0.055, 122, 33, 0, 190, 0, t, 441251059, -701056875
10/6/2020, 3:49:45 , 0.04015999, -0.08848286, 2.139764, -0.0001652916, -0.0003801316, 0.0002274308, 0.055, 122, 33, 0, 190, 0, t, 441251010, -701056902
10/6/2020, 3:49:45 , 0.04200759, -0.08613796, 2.139838, -0.0003141998, -0.0006216171, -0.001011921, 0.055, 122, 33, 0, 190, 0, t, 441251010, -701056902
10/6/2020, 3:49:45 , 0.04200759, -0.08613796, 2.139838, -0.0003141998, -0.0006216171, -0.001011921, 0.239, 122, 33, 0, 190, 0, t, 441251010, -701056902
10/6/2020, 3:49:46 , 0.04200759, -0.08613796, 2.139838, -0.0003141998, -0.0006216171, -0.001011921, 0.239, 122, 33, 0, 190, 0, t, 441251004, -701056925
10/6/2020, 3:49:46 , 0.04441987, -0.090834, 2.139767, -0.0006321473, -0.002197317, -0.002277633, 0.239, 122, 33, 0, 190, 0, t, 441251004, -701056925
10/6/2020, 3:49:46 , 0.04441987, -0.090834, 2.139767, -0.0006321473, -0.002197317, -0.002277633, 0.157, 122, 33, 0, 190, 0, t, 441251004, -701056925
10/6/2020, 3:49:47 , 0.04535042, -0.08972725, 2.139925, 0.001439902, -0.0006809942, 0.001072856, 0.157, 122, 33, 0, 190, 0, t, 441251004, -701056925
10/6/2020, 3:49:47 , 0.04535042, -0.08972725, 2.139925, 0.001439902, -0.0006809942, 0.001072856, 0.114, 122, 33, 0, 190, 0, t, 441251004, -701056925
10/6/2020, 3:49:47 , 0.04535042, -0.08972725, 2.139925, 0.001439902, -0.0006809942, 0.001072856, 0.114, 122, 33, 0, 190, 0, t, 441251036, -701056982
10/6/2020, 3:49:47 , 0.04285694, -0.09179688, 2.140571, 0.0004134136, -0.000260809, -0.001419602, 0.114, 122, 33, 0, 190, 0, t, 441251036, -701056982
10/6/2020, 3:49:47 , 0.04285694, -0.09179688, 2.140571, 0.0004134136, -0.000260809, -0.001419602, 0.07, 122, 33, 0, 190, 0, t, 441251036, -701056982
10/6/2020, 3:49:48 , 0.04285694, -0.09179688, 2.140571, 0.0004134136, -0.000260809, -0.001419602, 0.07, 122, 33, 0, 190, 0, t, 441251035, -701057032
10/6/2020, 3:49:48 , 0.04349615, -0.09511759, 2.139601, 2.24011E-05, 0.0003605441, -0.002902236, 0.07, 122, 33, 0, 190, 0, t, 441251035, -701057032
10/6/2020, 3:49:48 , 0.04349615, -0.09511759, 2.139601, 2.24011E-05, 0.0003605441, -0.002902236, 0.201, 122, 33, 0, 190, 0, t, 441251035, -701057032
10/6/2020, 3:49:48 , 0.04320537, -0.09490278, 2.140649, -0.001907262, -0.0007124068, -0.001821669, 0.201, 122, 33, 0, 190, 0, t, 441251035, -701057032
10/6/2020, 3:49:48 , 0.04320537, -0.09490278, 2.140649, -0.001907262, -0.0007124068, -0.001821669, 0.099, 122, 33, 0, 190, 0, t, 441251035, -701057032
10/6/2020, 3:49:49 , 0.04320537, -0.09490278, 2.140649, -0.001907262, -0.0007124068, -0.001821669, 0.099, 122, 33, 0, 190, 0, t, 441251064, -701057114
10/6/2020, 3:49:49 , 0.04500427, -0.09577888, 2.141089, -0.0012453, -0.001811486, -0.001646154, 0.099, 122, 33, 0, 190, 0, t, 441251064, -701057114
10/6/2020, 3:49:49 , 0.04500427, -0.09577888, 2.141089, -0.0012453, -0.001811486, -0.001646154, 0.107, 122, 33, 0, 190, 0, t, 441251064, -701057114
10/6/2020, 3:49:49 , 0.04500427, -0.09577888, 2.141089, -0.0012453, -0.001811486, -0.001646154, 0.107, 122, 33, 0, 190, 0, t, 441251068, -701057141
10/6/2020, 3:49:50 , 0.04432532, -0.08924722, 2.141379, 0.0008095806, -0.0002632984, -0.002284661, 0.107, 122, 33, 0, 190, 0, t, 441251068, -701057141
10/6/2020, 3:49:50 , 0.04432532, -0.08924722, 2.141379, 0.0008095806, -0.0002632984, -0.002284661, 0.222, 122, 33, 0, 190, 0, t, 441251068, -701057141
10/6/2020, 3:49:50 , 0.04432532, -0.08924722, 2.141379, 0.0008095806, -0.0002632984, -0.002284661, 0.222, 122, 33, 0, 190, 0, t, 441251342, -701057582
10/6/2020, 3:49:51 , 0.04375233, -0.09456763, 2.140622, 0.0003813279, -0.001533395, 0.0001250803, 0.222, 122, 33, 0, 190, 0, t, 441251342, -701057582
10/6/2020, 3:49:51 , 0.04375233, -0.09456763, 2.140622, 0.0003813279, -0.001533395, 0.0001250803, 0.075, 122, 33, 0, 190, 0, t, 441251342, -701057582
10/6/2020, 3:49:51 , 0.04375233, -0.09456763, 2.140622, 0.0003813279, -0.001533395, 0.0001250803, 0.075, 122, 33, 0, 190, 0, t, 441251921, -701058480
10/6/2020, 3:49:51 , 0.04468202, -0.09196658, 2.13988, -0.0004134108, -0.00013508, -0.00388162, 0.075, 122, 33, 0, 190, 0, t, 441251921, -701058480
10/6/2020, 3:49:51 , 0.04468202, -0.09196658, 2.13988, -0.0004134108, -0.00013508, -0.00388162, 0.068, 122, 33, 0, 190, 0, t, 441251921, -701058480
10/6/2020, 3:49:52 , 0.04468202, -0.09196658, 2.13988, -0.0004134108, -0.00013508, -0.00388162, 0.068, 122, 33, 0, 190, 0, t, 441252177, -701058885
10/6/2020, 3:49:52 , 0.04428294, -0.09266273, 2.139178, 0.0003955467, 0.0002162571, -0.003963543, 0.068, 122, 33, 0, 190, 0, t, 441252177, -701058885
10/6/2020, 3:49:52 , 0.04428294, -0.09266273, 2.139178, 0.0003955467, 0.0002162571, -0.003963543, 0.182, 122, 33, 0, 190, 0, t, 441252177, -701058885
10/6/2020, 3:49:52 , 0.04229309, -0.0903993, 2.139368, 0.001128264, -0.0007358091, -0.003071105, 0.182, 122, 33, 0, 190, 0, t, 441252177, -701058885
10/6/2020, 3:49:52 , 0.04229309, -0.0903993, 2.139368, 0.001128264, -0.0007358091, -0.003071105, 0.249, 122, 33, 0, 190, 0, t, 441252177, -701058885
10/6/2020, 3:49:52 , 0.04229309, -0.0903993, 2.139368, 0.001128264, -0.0007358091, -0.003071105, 0.249, 122, 33, 0, 190, 0, t, 441252378, -701059190
10/6/2020, 3:49:53 , 0.0428346, -0.08949141, 2.139875, -0.0009089089, -0.0007491596, 0.001584264, 0.249, 122, 33, 0, 190, 0, t, 441252378, -701059190
10/6/2020, 3:49:53 , 0.0428346, -0.08949141, 2.139875, -0.0009089089, -0.0007491596, 0.001584264, 0.139, 122, 33, 0, 190, 0, t, 441252378, -701059190
10/6/2020, 3:49:53 , 0.0428346, -0.08949141, 2.139875, -0.0009089089, -0.0007491596, 0.001584264, 0.139, 122, 33, 0, 190, 0, t, 441252463, -701059315
10/6/2020, 3:49:54 , 0.04289198, -0.09262971, 2.139753, 0.002769722, 0.0004787755, 0.001403948, 0.139, 122, 33, 0, 190, 0, t, 441252463, -701059315
10/6/2020, 3:49:54 , 0.04289198, -0.09262971, 2.139753, 0.002769722, 0.0004787755, 0.001403948, 0.111, 122, 33, 0, 190, 0, t, 441252463, -701059315
10/6/2020, 3:49:54 , 0.04462181, -0.09182204, 2.139997, 0.0004137896, -0.0009711748, 0.002595069, 0.111, 122, 33, 0, 190, 0, t, 441252463, -701059315
10/6/2020, 3:49:54 , 0.04462181, -0.09182204, 2.139997, 0.0004137896, -0.0009711748, 0.002595069, 0.095, 122, 33, 0, 190, 0, t, 441252463, -701059315
10/6/2020, 3:49:54 , 0.04462181, -0.09182204, 2.139997, 0.0004137896, -0.0009711748, 0.002595069, 0.095, 122, 33, 0, 190, 0, t, 441252483, -701059345
10/6/2020, 3:49:54 , 0.04410611, -0.08923683, 2.139699, 0.0006596926, -0.00292124, -0.0002523102, 0.095, 122, 33, 0, 190, 0, t, 441252483, -701059345
10/6/2020, 3:49:54 , 0.04410611, -0.08923683, 2.139699, 0.0006596926, -0.00292124, -0.0002523102, 0.013, 122, 33, 0, 190, 0, t, 441252483, -701059345
10/6/2020, 3:49:55 , 0.04410611, -0.08923683, 2.139699, 0.0006596926, -0.00292124, -0.0002523102, 0.141, 122, 33, 0, 190, 0, t, 441252483, -701059345
10/6/2020, 3:49:55 , 0.04410611, -0.08923683, 2.139699, 0.0006596926, -0.00292124, -0.0002523102, 0.141, 122, 33, 0, 190, 0, t, 441252520, -701059397
10/6/2020, 3:49:55 , 0.04367698, -0.09179139, 2.140185, 0.0003474271, -0.0008679181, -0.0007549878, 0.141, 122, 33, 0, 190, 0, t, 441252520, -701059397
10/6/2020, 3:49:55 , 0.04367698, -0.09179139, 2.140185, 0.0003474271, -0.0008679181, -0.0007549878, 0.389, 122, 33, 0, 190, 0, t, 441252520, -701059397
10/6/2020, 3:49:55 , 0.04367698, -0.09179139, 2.140185, 0.0003474271, -0.0008679181, -0.0007549878, 0.389, 122, 33, 0, 190, 0, t, 441252588, -701059487
10/6/2020, 3:49:56 , 0.04250585, -0.0870981, 2.14043, 0.001157096, -0.0006109974, 0.0003176369, 0.389, 122, 33, 0, 190, 0, t, 441252588, -701059487
10/6/2020, 3:49:56 , 0.04250585, -0.0870981, 2.14043, 0.001157096, -0.0006109974, 0.0003176369, 0.209, 122, 33, 0, 190, 0, t, 441252588, -701059487
10/6/2020, 3:49:56 , 0.04513108, -0.08827067, 2.140011, 0.001012488, -0.001623799, 0.0008701216, 0.209, 122, 33, 0, 190, 0, t, 441252588, -701059487
10/6/2020, 3:49:56 , 0.04513108, -0.08827067, 2.140011, 0.001012488, -0.001623799, 0.0008701216, 0.199, 122, 33, 0, 190, 0, t, 441252588, -701059487
10/6/2020, 3:49:56 , 0.04513108, -0.08827067, 2.140011, 0.001012488, -0.001623799, 0.0008701216, 0.199, 122, 33, 0, 190, 0, t, 441252626, -701059545
10/6/2020, 3:49:57 , 0.04256973, -0.09339045, 2.140173, 0.001168692, -0.0007816963, 0.001281504, 0.199, 122, 33, 0, 190, 0, t, 441252626, -701059545
10/6/2020, 3:49:57 , 0.04256973, -0.09339045, 2.140173, 0.001168692, -0.0007816963, 0.001281504, 0.141, 122, 33, 0, 190, 0, t, 441252626, -701059545
10/6/2020, 3:49:57 , 0.04256973, -0.09339045, 2.140173, 0.001168692, -0.0007816963, 0.001281504, 0.141, 122, 33, 0, 190, 0, t, 441252650, -701059574
10/6/2020, 3:49:57 , 0.0433817, -0.09210154, 2.140723, 0.000753745, -0.001827117, -0.001040833, 0.141, 122, 33, 0, 190, 0, t, 441252650, -701059574
10/6/2020, 3:49:57 , 0.0433817, -0.09210154, 2.140723, 0.000753745, -0.001827117, -0.001040833, 0.06, 122, 33, 0, 190, 0, t, 441252650, -701059574
10/6/2020, 3:49:57 , 0.04423515, -0.09122437, 2.140762, -0.001245203, -5.019363E-05, -0.002991879, 0.06, 122, 33, 0, 190, 0, t, 441252650, -701059574
10/6/2020, 3:49:57 , 0.04423515, -0.09122437, 2.140762, -0.001245203, -5.019363E-05, -0.002991879, 0.134, 122, 33, 0, 190, 0, t, 441252650, -701059574
10/6/2020, 3:49:58 , 0.04423515, -0.09122437, 2.140762, -0.001245203, -5.019363E-05, -0.002991879, 0.134, 122, 33, 0, 190, 0, t, 441252688, -701059631
10/6/2020, 3:49:58 , 0.04591303, -0.09190124, 2.140389, 0.002147702, 0.0005495825, 0.001256382, 0.134, 122, 33, 0, 190, 0, t, 441252688, -701059631
10/6/2020, 3:49:58 , 0.04591303, -0.09190124, 2.140389, 0.002147702, 0.0005495825, 0.001256382, 0.128, 122, 33, 0, 190, 0, t, 441252688, -701059631
10/6/2020, 3:49:58 , 0.04591303, -0.09190124, 2.140389, 0.002147702, 0.0005495825, 0.001256382, 0.128, 122, 33, 0, 190, 0, t, 441252707, -701059676
10/6/2020, 3:49:59 , 0.04488813, -0.09038447, 2.140195, -0.001250975, -0.001544362, -0.001940385, 0.128, 122, 33, 0, 190, 0, t, 441252707, -701059676
10/6/2020, 3:49:59 , 0.04488813, -0.09038447, 2.140195, -0.001250975, -0.001544362, -0.001940385, 0.066, 122, 33, 0, 190, 0, t, 441252707, -701059676
10/6/2020, 3:49:59 , 0.04674016, -0.09464829, 2.139977, -0.002020204, -0.001408756, -0.0006090757, 0.066, 122, 33, 0, 190, 0, t, 441252707, -701059676
10/6/2020, 3:49:59 , 0.04674016, -0.09464829, 2.139977, -0.002020204, -0.001408756, -0.0006090757, 0.105, 122, 33, 0, 190, 0, t, 441252707, -701059676
10/6/2020, 3:49:59 , 0.04674016, -0.09464829, 2.139977, -0.002020204, -0.001408756, -0.0006090757, 0.105, 122, 33, 0, 190, 0, t, 441252714, -701059706
10/6/2020, 3:49:59 , 0.04397225, -0.09391598, 2.139805, 0.0003527054, -0.001773064, -0.001486689, 0.105, 122, 33, 0, 190, 0, t, 441252714, -701059706
10/6/2020, 3:49:59 , 0.04397225, -0.09391598, 2.139805, 0.0003527054, -0.001773064, -0.001486689, 0.111, 122, 33, 0, 190, 0, t, 441252714, -701059706
10/6/2020, 3:49:59 , 0.04397225, -0.09391598, 2.139805, 0.0003527054, -0.001773064, -0.001486689, 0.111, 122, 33, 0, 190, 0, t, 441252719, -701059731
10/6/2020, 3:50:00 , 0.04546398, -0.09195885, 2.139847, -0.001548049, -0.001824756, -0.0004540458, 0.111, 122, 33, 0, 190, 0, t, 441252719, -701059731
10/6/2020, 3:50:00 , 0.04546398, -0.09195885, 2.139847, -0.001548049, -0.001824756, -0.0004540458, 0.089, 122, 33, 0, 190, 0, t, 441252719, -701059731
10/6/2020, 3:50:00 , 0.04402477, -0.09451188, 2.140432, 0.001530429, 0.0003499498, -2.884306E-05, 0.089, 122, 33, 0, 190, 0, t, 441252719, -701059731
10/6/2020, 3:50:00 , 0.04402477, -0.09451188, 2.140432, 0.001530429, 0.0003499498, -2.884306E-05, 0.119, 122, 33, 0, 190, 0, t, 441252719, -701059731
10/6/2020, 3:50:00 , 0.04402477, -0.09451188, 2.140432, 0.001530429, 0.0003499498, -2.884306E-05, 0.119, 122, 33, 0, 190, 0, t, 441252744, -701059766
10/6/2020, 3:50:01 , 0.04607861, -0.09141789, 2.140095, 6.46757E-06, -0.0002082498, -0.00312514, 0.119, 122, 33, 0, 190, 0, t, 441252744, -701059766
10/6/2020, 3:50:01 , 0.04607861, -0.09141789, 2.140095, 6.46757E-06, -0.0002082498, -0.00312514, 0.225, 122, 33, 0, 190, 0, t, 441252744, -701059766
10/6/2020, 3:50:01 , 0.04658151, -0.09284351, 2.139886, -0.001538828, 0.0009333373, -0.001437614, 0.225, 122, 33, 0, 190, 0, t, 441252744, -701059766
10/6/2020, 3:50:01 , 0.04658151, -0.09284351, 2.139886, -0.001538828, 0.0009333373, -0.001437614, 0.102, 122, 33, 0, 190, 0, t, 441252744, -701059766
10/6/2020, 3:50:01 , 0.04658151, -0.09284351, 2.139886, -0.001538828, 0.0009333373, -0.001437614, 0.102, 122, 33, 0, 190, 0, t, 441252781, -701059831
10/6/2020, 3:50:02 , 0.04418365, -0.09446783, 2.139717, -0.003217339, -0.001254778, -0.001441771, 0.102, 122, 33, 0, 190, 0, t, 441252781, -701059831
10/6/2020, 3:50:02 , 0.04418365, -0.09446783, 2.139717, -0.003217339, -0.001254778, -0.001441771, 0.115, 122, 33, 0, 190, 0, t, 441252781, -701059831
10/6/2020, 3:50:02 , 0.04418365, -0.09446783, 2.139717, -0.003217339, -0.001254778, -0.001441771, 0.115, 122, 33, 0, 190, 0, t, 441252799, -701059865
10/6/2020, 3:50:02 , 0.04269048, -0.08959249, 2.140099, -0.000682591, -0.000970697, 0.0007604398, 0.115, 122, 33, 0, 190, 0, t, 441252799, -701059865
10/6/2020, 3:50:02 , 0.04269048, -0.08959249, 2.140099, -0.000682591, -0.000970697, 0.0007604398, 0.205, 122, 33, 0, 190, 0, t, 441252799, -701059865
10/6/2020, 3:50:02 , 0.04651248, -0.09280115, 2.139269, 0.0009718509, 0.0001252573, -0.0008710679, 0.205, 122, 33, 0, 190, 0, t, 441252799, -701059865
10/6/2020, 3:50:02 , 0.04651248, -0.09280115, 2.139269, 0.0009718509, 0.0001252573, -0.0008710679, 0.135, 122, 33, 0, 190, 0, t, 441252799, -701059865
10/6/2020, 3:50:02 , 0.04651248, -0.09280115, 2.139269, 0.0009718509, 0.0001252573, -0.0008710679, 0.135, 122, 33, 0, 190, 0, t, 441252812, -701059896
10/6/2020, 3:50:03 , 0.04332176, -0.09082533, 2.139218, -0.002422441, -0.00194063, 0.000949055, 0.135, 122, 33, 0, 190, 0, t, 441252812, -701059896
10/6/2020, 3:50:03 , 0.04332176, -0.09082533, 2.139218, -0.002422441, -0.00194063, 0.000949055, 0.231, 122, 33, 0, 190, 0, t, 441252812, -701059896
10/6/2020, 3:50:03 , 0.04332176, -0.09082533, 2.139218, -0.002422441, -0.00194063, 0.000949055, 0.231, 122, 33, 0, 190, 0, t, 441252817, -701059912
10/6/2020, 3:50:03 , 0.04296998, -0.09239374, 2.139347, -0.00120983, 0.0003204448, -0.004600272, 0.231, 122, 33, 0, 190, 0, t, 441252817, -701059912
10/6/2020, 3:50:03 , 0.04296998, -0.09239374, 2.139347, -0.00120983, 0.0003204448, -0.004600272, 0.188, 122, 33, 0, 190, 0, t, 441252817, -701059912
10/6/2020, 3:50:04 , 0.04766988, -0.09473658, 2.139087, -0.001867731, 0.0003540027, -0.00119021, 0.188, 122, 33, 0, 190, 0, t, 441252817, -701059912
10/6/2020, 3:50:04 , 0.04766988, -0.09473658, 2.139087, -0.001867731, 0.0003540027, -0.00119021, 0.294, 122, 33, 0, 190, 0, t, 441252817, -701059912
10/6/2020, 3:50:04 , 0.04766988, -0.09473658, 2.139087, -0.001867731, 0.0003540027, -0.00119021, 0.294, 122, 33, 0, 190, 0, t, 441252809, -701059923
10/6/2020, 3:50:04 , 0.04574066, -0.09509606, 2.139192, 0.001930726, 0.0008047216, 0.0007836744, 0.294, 122, 33, 0, 190, 0, t, 441252809, -701059923
10/6/2020, 3:50:04 , 0.04574066, -0.09509606, 2.139192, 0.001930726, 0.0008047216, 0.0007836744, 0.097, 122, 33, 0, 190, 0, t, 441252809, -701059923
10/6/2020, 3:50:04 , 0.04574066, -0.09509606, 2.139192, 0.001930726, 0.0008047216, 0.0007836744, 0.097, 122, 33, 0, 190, 0, t, 441252801, -701059932
10/6/2020, 3:50:05 , 0.03818201, -0.08607087, 2.139517, 0.001114258, -0.0002183379, -0.0009566639, 0.097, 122, 33, 0, 190, 0, t, 441252801, -701059932
10/6/2020, 3:50:05 , 0.03818201, -0.08607087, 2.139517, 0.001114258, -0.0002183379, -0.0009566639, 0.595, 122, 33, 0, 190, 0, t, 441252801, -701059932
10/6/2020, 3:50:05 , 0.04576931, -0.08959052, 2.13885, 0.001894128, -0.0004736171, 3.852695E-05, 0.595, 122, 33, 0, 190, 0, t, 441252801, -701059932
10/6/2020, 3:50:05 , 0.04576931, -0.08959052, 2.13885, 0.001894128, -0.0004736171, 3.852695E-05, 0.115, 122, 33, 0, 190, 0, t, 441252801, -701059932
10/6/2020, 3:50:05 , 0.04576931, -0.08959052, 2.13885, 0.001894128, -0.0004736171, 3.852695E-05, 0.115, 122, 33, 0, 190, 0, t, 441252803, -701059938
10/6/2020, 3:50:06 , 0.04578348, -0.09348627, 2.139069, 0.001103649, -0.00147105, -0.001988191, 0.115, 122, 33, 0, 190, 0, t, 441252803, -701059938
10/6/2020, 3:50:06 , 0.04578348, -0.09348627, 2.139069, 0.001103649, -0.00147105, -0.001988191, 0.199, 122, 33, 0, 190, 0, t, 441252803, -701059938
10/6/2020, 3:50:06 , 0.04578348, -0.09348627, 2.139069, 0.001103649, -0.00147105, -0.001988191, 0.199, 122, 33, 0, 190, 0, t, 441252791, -701059940
10/6/2020, 3:50:06 , 0.04664784, -0.08999231, 2.139284, -0.001622843, -0.0007809121, -0.0001520794, 0.199, 122, 33, 0, 190, 0, t, 441252791, -701059940
10/6/2020, 3:50:06 , 0.04664784, -0.08999231, 2.139284, -0.001622843, -0.0007809121, -0.0001520794, 0.139, 122, 33, 0, 190, 0, t, 441252791, -701059940
10/6/2020, 3:50:06 , 0.043852, -0.09081806, 2.139602, -0.001285769, -0.001618868, -0.003655721, 0.139, 122, 33, 0, 190, 0, t, 441252791, -701059940
10/6/2020, 3:50:06 , 0.043852, -0.09081806, 2.139602, -0.001285769, -0.001618868, -0.003655721, 0.079, 122, 33, 0, 190, 0, t, 441252791, -701059940
10/6/2020, 3:50:06 , 0.043852, -0.09081806, 2.139602, -0.001285769, -0.001618868, -0.003655721, 0.079, 122, 33, 0, 190, 0, t, 441252796, -701059952
10/6/2020, 3:50:07 , 0.04821497, -0.09257852, 2.138899, -0.001660577, -0.002115814, -0.002284462, 0.079, 122, 33, 0, 190, 0, t, 441252796, -701059952
10/6/2020, 3:50:07 , 0.04821497, -0.09257852, 2.138899, -0.001660577, -0.002115814, -0.002284462, 0.245, 122, 33, 0, 190, 0, t, 441252796, -701059952
10/6/2020, 3:50:07 , 0.04594215, -0.08950919, 2.139246, -0.0002152952, 0.0002193353, -7.450022E-05, 0.245, 122, 33, 0, 190, 0, t, 441252796, -701059952
10/6/2020, 3:50:07 , 0.04594215, -0.08950919, 2.139246, -0.0002152952, 0.0002193353, -7.450022E-05, 0.424, 122, 33, 0, 190, 0, t, 441252796, -701059952
10/6/2020, 3:50:07 , 0.04594215, -0.08950919, 2.139246, -0.0002152952, 0.0002193353, -7.450022E-05, 0.424, 122, 33, 0, 190, 0, t, 441252799, -701059960
10/6/2020, 3:50:08 , 0.0367394, -0.07859994, 2.139328, -0.0008643223, -0.0007113582, -0.002597606, 0.424, 122, 33, 0, 190, 0, t, 441252799, -701059960
10/6/2020, 3:50:08 , 0.0367394, -0.07859994, 2.139328, -0.0008643223, -0.0007113582, -0.002597606, 1.95, 122, 33, 0, 190, 0, t, 441252799, -701059960
10/6/2020, 3:50:08 , 0.0367394, -0.07859994, 2.139328, -0.0008643223, -0.0007113582, -0.002597606, 1.95, 122, 33, 0, 190, 0, t, 441252831, -701059988
10/6/2020, 3:50:08 , 0.04346569, -0.08854456, 2.138229, -0.000270498, -0.0003380417, -0.001387376, 1.95, 122, 33, 0, 190, 0, t, 441252831, -701059988
10/6/2020, 3:50:08 , 0.04346569, -0.08854456, 2.138229, -0.000270498, -0.0003380417, -0.001387376, 0.266, 122, 33, 0, 190, 0, t, 441252831, -701059988
10/6/2020, 3:50:08 , 0.04600126, -0.08879126, 2.137845, 0.00093115, -0.001471766, 0.0007140953, 0.266, 122, 33, 0, 190, 0, t, 441252831, -701059988
10/6/2020, 3:50:08 , 0.04600126, -0.08879126, 2.137845, 0.00093115, -0.001471766, 0.0007140953, 0.287, 122, 33, 0, 190, 0, t, 441252831, -701059988
10/6/2020, 3:50:08 , 0.04600126, -0.08879126, 2.137845, 0.00093115, -0.001471766, 0.0007140953, 0.287, 122, 33, 0, 190, 0, t, 441252835, -701059996
10/6/2020, 3:50:09 , 0.0429094, -0.08868951, 2.138027, -0.001082818, -0.001371185, -0.002724409, 0.287, 122, 33, 0, 190, 0, t, 441252835, -701059996
10/6/2020, 3:50:09 , 0.0429094, -0.08868951, 2.138027, -0.001082818, -0.001371185, -0.002724409, 0.052, 122, 33, 0, 190, 0, t, 441252835, -701059996
10/6/2020, 3:50:09 , 0.0429094, -0.08868951, 2.138027, -0.001082818, -0.001371185, -0.002724409, 0.052, 122, 33, 0, 190, 0, t, 441252836, -701059992
10/6/2020, 3:50:09 , 0.04556193, -0.09275291, 2.137733, 0.001328018, 0.001550066, -0.0008829422, 0.052, 122, 33, 0, 190, 0, t, 441252836, -701059992
10/6/2020, 3:50:09 , 0.04556193, -0.09275291, 2.137733, 0.001328018, 0.001550066, -0.0008829422, 0.049, 122, 33, 0, 190, 0, t, 441252836, -701059992
10/6/2020, 3:50:10 , 0.04031799, -0.08984646, 2.138455, 0.003312557, -0.001310313, -0.001600528, 0.049, 122, 33, 0, 190, 0, t, 441252836, -701059992
10/6/2020, 3:50:10 , 0.04031799, -0.08984646, 2.138455, 0.003312557, -0.001310313, -0.001600528, 0.406, 122, 33, 0, 190, 0, t, 441252836, -701059992
10/6/2020, 3:50:10 , 0.04031799, -0.08984646, 2.138455, 0.003312557, -0.001310313, -0.001600528, 0.406, 122, 33, 0, 190, 0, t, 441252845, -701059989
10/6/2020, 3:50:10 , 0.03876298, -0.09161101, 2.139042, -0.004003419, -8.976692E-05, -0.002041904, 0.406, 122, 33, 0, 190, 0, t, 441252845, -701059989
10/6/2020, 3:50:10 , 0.03876298, -0.09161101, 2.139042, -0.004003419, -8.976692E-05, -0.002041904, 0.222, 122, 33, 0, 190, 0, t, 441252845, -701059989
10/6/2020, 3:50:10 , 0.04491424, -0.08881836, 2.138848, 0.00166913, -0.0009683687, -0.002027594, 0.222, 122, 33, 0, 190, 0, t, 441252845, -701059989
10/6/2020, 3:50:10 , 0.04491424, -0.08881836, 2.138848, 0.00166913, -0.0009683687, -0.002027594, 0.2, 122, 33, 0, 190, 0, t, 441252845, -701059989
10/6/2020, 3:50:10 , 0.04491424, -0.08881836, 2.138848, 0.00166913, -0.0009683687, -0.002027594, 0.2, 122, 33, 0, 190, 0, t, 441252856, -701060006
10/6/2020, 3:50:11 , 0.04718025, -0.09187371, 2.138313, 0.002247043, 0.0002631717, 0.001745721, 0.2, 122, 33, 0, 190, 0, t, 441252856, -701060006
10/6/2020, 3:50:11 , 0.04718025, -0.09187371, 2.138313, 0.002247043, 0.0002631717, 0.001745721, 0.244, 122, 33, 0, 190, 0, t, 441252856, -701060006
10/6/2020, 3:50:11 , 0.04718025, -0.09187371, 2.138313, 0.002247043, 0.0002631717, 0.001745721, 0.244, 122, 33, 0, 190, 0, t, 441252856, -701059999
10/6/2020, 3:50:11 , 0.04611694, -0.09080161, 2.138042, -0.0006867782, 0.0009787255, -0.001218835, 0.244, 122, 33, 0, 190, 0, t, 441252856, -701059999
10/6/2020, 3:50:11 , 0.04611694, -0.09080161, 2.138042, -0.0006867782, 0.0009787255, -0.001218835, 0.036, 122, 33, 0, 190, 0, t, 441252856, -701059999
10/6/2020, 3:50:12 , 0.04836254, -0.0943151, 2.138234, 0.004041015, 0.0004745815, -3.122725E-05, 0.036, 122, 33, 0, 190, 0, t, 441252856, -701059999
10/6/2020, 3:50:12 , 0.04836254, -0.0943151, 2.138234, 0.004041015, 0.0004745815, -3.122725E-05, 0.129, 122, 33, 0, 190, 0, t, 441252856, -701059999
10/6/2020, 3:50:12 , 0.04836254, -0.0943151, 2.138234, 0.004041015, 0.0004745815, -3.122725E-05, 0.129, 122, 33, 0, 190, 0, t, 441252841, -701059984
10/6/2020, 3:50:12 , 0.04912151, -0.09384177, 2.137674, 0.0001094099, 0.0005475273, -0.002706574, 0.129, 122, 33, 0, 190, 0, t, 441252841, -701059984
10/6/2020, 3:50:12 , 0.04912151, -0.09384177, 2.137674, 0.0001094099, 0.0005475273, -0.002706574, 0.08300001, 122, 33, 0, 190, 0, t, 441252841, -701059984
10/6/2020, 3:50:12 , 0.04912151, -0.09384177, 2.137674, 0.0001094099, 0.0005475273, -0.002706574, 0.08300001, 122, 33, 0, 190, 0, t, 441252839, -701059984
10/6/2020, 3:50:13 , 0.0471782, -0.0943341, 2.138066, -0.00376165, 0.001388411, -5.048513E-05, 0.08300001, 122, 33, 0, 190, 0, t, 441252839, -701059984
10/6/2020, 3:50:13 , 0.0471782, -0.0943341, 2.138066, -0.00376165, 0.001388411, -5.048513E-05, 0.204, 122, 33, 0, 190, 0, t, 441252839, -701059984
10/6/2020, 3:50:13 , 0.04574013, -0.09610008, 2.137889, -0.0006698607, -0.003449809, 0.00291132, 0.204, 122, 33, 0, 190, 0, t, 441252839, -701059984
10/6/2020, 3:50:13 , 0.04574013, -0.09610008, 2.137889, -0.0006698607, -0.003449809, 0.00291132, 0.037, 122, 33, 0, 190, 0, t, 441252839, -701059984
10/6/2020, 3:50:13 , 0.04574013, -0.09610008, 2.137889, -0.0006698607, -0.003449809, 0.00291132, 0.037, 122, 33, 0, 190, 0, t, 441252842, -701059988
10/6/2020, 3:50:14 , 0.04453399, -0.09504089, 2.13833, 0.001916878, 0.001959716, -0.001987269, 0.037, 122, 33, 0, 190, 0, t, 441252842, -701059988
10/6/2020, 3:50:14 , 0.04453399, -0.09504089, 2.13833, 0.001916878, 0.001959716, -0.001987269, 0.052, 122, 33, 0, 190, 0, t, 441252842, -701059988
10/6/2020, 3:50:14 , 0.04206546, -0.08997756, 2.138864, 0.0007793887, -0.002121429, -0.0003835429, 0.052, 122, 33, 0, 190, 0, t, 441252842, -701059988
10/6/2020, 3:50:14 , 0.04206546, -0.08997756, 2.138864, 0.0007793887, -0.002121429, -0.0003835429, 0.378, 122, 33, 0, 190, 0, t, 441252842, -701059988
10/6/2020, 3:50:14 , 0.04206546, -0.08997756, 2.138864, 0.0007793887, -0.002121429, -0.0003835429, 0.378, 122, 33, 0, 190, 0, t, 441252857, -701059992
10/6/2020, 3:50:15 , 0.04248396, -0.09214751, 2.139229, -0.003169771, -0.001515828, -0.002322027, 0.378, 122, 33, 0, 190, 0, t, 441252857, -701059992
10/6/2020, 3:50:15 , 0.04248396, -0.09214751, 2.139229, -0.003169771, -0.001515828, -0.002322027, 0.218, 122, 33, 0, 190, 0, t, 441252857, -701059992
10/6/2020, 3:50:15 , 0.04248396, -0.09214751, 2.139229, -0.003169771, -0.001515828, -0.002322027, 0.218, 122, 33, 0, 190, 0, t, 441252888, -701060008
10/6/2020, 3:50:15 , 0.04038554, -0.08743881, 2.140155, -0.001743104, 5.888427E-05, -0.001711478, 0.218, 122, 33, 0, 190, 0, t, 441252888, -701060008
10/6/2020, 3:50:15 , 0.04038554, -0.08743881, 2.140155, -0.001743104, 5.888427E-05, -0.001711478, 0.395, 122, 33, 0, 190, 0, t, 441252888, -701060008
10/6/2020, 3:50:15 , 0.04209259, -0.09049283, 2.140237, 1.530536E-05, -0.001068519, -0.0005311351, 0.395, 122, 33, 0, 190, 0, t, 441252888, -701060008
10/6/2020, 3:50:15 , 0.04209259, -0.09049283, 2.140237, 1.530536E-05, -0.001068519, -0.0005311351, 0.167, 122, 33, 0, 190, 0, t, 441252888, -701060008
10/6/2020, 3:50:16 , 0.04209259, -0.09049283, 2.140237, 1.530536E-05, -0.001068519, -0.0005311351, 0.167, 122, 33, 0, 190, 0, t, 441252905, -701060017
10/6/2020, 3:50:16 , 0.04470672, -0.09149923, 2.140082, -0.003270448, -0.001103314, -0.00246786, 0.167, 122, 33, 0, 190, 0, t, 441252905, -701060017
10/6/2020, 3:50:16 , 0.04470672, -0.09149923, 2.140082, -0.003270448, -0.001103314, -0.00246786, 0.252, 122, 33, 0, 190, 0, t, 441252905, -701060017
10/6/2020, 3:50:16 , 0.04470672, -0.09149923, 2.140082, -0.003270448, -0.001103314, -0.00246786, 0.252, 122, 33, 0, 190, 0, t, 441252909, -701060029
10/6/2020, 3:50:17 , 0.0475178, -0.09388947, 2.139871, -0.0004213913, 0.0006196736, -9.49949E-07, 0.252, 122, 33, 0, 190, 0, t, 441252909, -701060029
10/6/2020, 3:50:17 , 0.0475178, -0.09388947, 2.139871, -0.0004213913, 0.0006196736, -9.49949E-07, 0.148, 122, 33, 0, 190, 0, t, 441252909, -701060029
10/6/2020, 3:50:17 , 0.04499642, -0.0945024, 2.139961, -0.001030189, -0.00200874, -0.003230628, 0.148, 122, 33, 0, 190, 0, t, 441252909, -701060029
10/6/2020, 3:50:17 , 0.04499642, -0.0945024, 2.139961, -0.001030189, -0.00200874, -0.003230628, 0.202, 122, 33, 0, 190, 0, t, 441252909, -701060029
10/6/2020, 3:50:17 , 0.04499642, -0.0945024, 2.139961, -0.001030189, -0.00200874, -0.003230628, 0.202, 122, 33, 0, 190, 0, t, 441252918, -701060032
10/6/2020, 3:50:17 , 0.04417546, -0.09691466, 2.139935, 0.0004963637, -0.0006634849, 0.001629235, 0.202, 122, 33, 0, 190, 0, t, 441252918, -701060032
10/6/2020, 3:50:17 , 0.04417546, -0.09691466, 2.139935, 0.0004963637, -0.0006634849, 0.001629235, 0.198, 122, 33, 0, 190, 0, t, 441252918, -701060032
10/6/2020, 3:50:17 , 0.04417546, -0.09691466, 2.139935, 0.0004963637, -0.0006634849, 0.001629235, 0.198, 122, 33, 0, 190, 0, t, 441252913, -701060016
10/6/2020, 3:50:18 , 0.04457324, -0.096386, 2.141124, -0.002298966, -0.0009665899, 0.001456557, 0.198, 122, 33, 0, 190, 0, t, 441252913, -701060016
10/6/2020, 3:50:18 , 0.04457324, -0.096386, 2.141124, -0.002298966, -0.0009665899, 0.001456557, 0.101, 122, 33, 0, 190, 0, t, 441252913, -701060016
10/6/2020, 3:50:18 , 0.04841106, -0.09506032, 2.140501, -0.001015638, -0.000857417, -0.001138944, 0.101, 122, 33, 0, 190, 0, t, 441252913, -701060016
10/6/2020, 3:50:18 , 0.04841106, -0.09506032, 2.140501, -0.001015638, -0.000857417, -0.001138944, 0.202, 122, 33, 0, 190, 0, t, 441252913, -701060016
10/6/2020, 3:50:18 , 0.04841106, -0.09506032, 2.140501, -0.001015638, -0.000857417, -0.001138944, 0.202, 122, 33, 0, 190, 0, t, 441252906, -701060022
10/6/2020, 3:50:19 , 0.05631392, -0.09507573, 2.139434, -0.0001370283, -0.0007403288, -0.001207031, 0.202, 122, 33, 0, 190, 0, t, 441252906, -701060022
10/6/2020, 3:50:19 , 0.05631392, -0.09507573, 2.139434, -0.0001370283, -0.0007403288, -0.001207031, 0.504, 122, 33, 0, 190, 0, t, 441252906, -701060022
10/6/2020, 3:50:19 , 0.05631392, -0.09507573, 2.139434, -0.0001370283, -0.0007403288, -0.001207031, 0.504, 122, 33, 0, 190, 0, t, 441252898, -701060025
10/6/2020, 3:50:19 , 0.04384406, -0.09260684, 2.140072, -0.00160421, -0.0004273118, -0.0002360903, 0.504, 122, 33, 0, 190, 0, t, 441252898, -701060025
10/6/2020, 3:50:19 , 0.04384406, -0.09260684, 2.140072, -0.00160421, -0.0004273118, -0.0002360903, 0.061, 122, 33, 0, 190, 0, t, 441252898, -701060025
10/6/2020, 3:50:20 , 0.04052028, -0.08784493, 2.141279, -0.001973811, -0.002029623, -5.590171E-05, 0.061, 122, 33, 0, 190, 0, t, 441252898, -701060025
10/6/2020, 3:50:20 , 0.04052028, -0.08784493, 2.141279, -0.001973811, -0.002029623, -5.590171E-05, 0.387, 122, 33, 0, 190, 0, t, 441252898, -701060025
10/6/2020, 3:50:20 , 0.04052028, -0.08784493, 2.141279, -0.001973811, -0.002029623, -5.590171E-05, 0.387, 122, 33, 0, 190, 0, t, 441252912, -701060020
10/6/2020, 3:50:20 , 0.04362925, -0.09044108, 2.141654, 0.002918559, 0.001454705, -0.001775922, 0.387, 122, 33, 0, 190, 0, t, 441252912, -701060020
10/6/2020, 3:50:20 , 0.04362925, -0.09044108, 2.141654, 0.002918559, 0.001454705, -0.001775922, 0.068, 122, 33, 0, 190, 0, t, 441252912, -701060020
10/6/2020, 3:50:20 , 0.04362925, -0.09044108, 2.141654, 0.002918559, 0.001454705, -0.001775922, 0.068, 122, 33, 0, 190, 0, t, 441252921, -701060011
10/6/2020, 3:50:21 , 0.0489088, -0.09451551, 2.141393, -0.002692818, -0.001282485, -0.00116157, 0.068, 122, 33, 0, 190, 0, t, 441252921, -701060011
10/6/2020, 3:50:21 , 0.0489088, -0.09451551, 2.141393, -0.002692818, -0.001282485, -0.00116157, 0.453, 122, 33, 0, 190, 0, t, 441252921, -701060011
10/6/2020, 3:50:21 , 0.04946865, -0.09486348, 2.141186, -0.001771514, -0.001598916, -0.001655962, 0.453, 122, 33, 0, 190, 0, t, 441252921, -701060011
10/6/2020, 3:50:21 , 0.04946865, -0.09486348, 2.141186, -0.001771514, -0.001598916, -0.001655962, 0.292, 122, 33, 0, 190, 0, t, 441252921, -701060011
10/6/2020, 3:50:21 , 0.04946865, -0.09486348, 2.141186, -0.001771514, -0.001598916, -0.001655962, 0.292, 122, 33, 0, 190, 0, t, 441252908, -701060007
10/6/2020, 3:50:22 , 0.04523451, -0.09406521, 2.141519, 0.001266115, -0.000439032, 0.001917481, 0.292, 122, 33, 0, 190, 0, t, 441252908, -701060007
10/6/2020, 3:50:22 , 0.04523451, -0.09406521, 2.141519, 0.001266115, -0.000439032, 0.001917481, 0.064, 122, 33, 0, 190, 0, t, 441252908, -701060007
10/6/2020, 3:50:22 , 0.04523451, -0.09406521, 2.141519, 0.001266115, -0.000439032, 0.001917481, 0.064, 122, 33, 0, 190, 0, t, 441252914, -701059989
10/6/2020, 3:50:23 , 0.04704487, -0.09518863, 2.141396, -0.0002453271, -0.001987892, -0.003329001, 0.064, 122, 33, 0, 190, 0, t, 441252914, -701059989
10/6/2020, 3:50:23 , 0.04704487, -0.09518863, 2.141396, -0.0002453271, -0.001987892, -0.003329001, 0.07600001, 122, 33, 0, 190, 0, t, 441252914, -701059989
10/6/2020, 3:50:23 , 0.04346285, -0.08780249, 2.142056, -0.0007049125, 0.0001116795, 0.003112363, 0.07600001, 122, 33, 0, 190, 0, t, 441252914, -701059989
10/6/2020, 3:50:23 , 0.04346285, -0.08780249, 2.142056, -0.0007049125, 0.0001116795, 0.003112363, 0.08100001, 122, 33, 0, 190, 0, t, 441252914, -701059989
10/6/2020, 3:50:23 , 0.04346285, -0.08780249, 2.142056, -0.0007049125, 0.0001116795, 0.003112363, 0.08100001, 122, 33, 0, 190, 0, t, 441252920, -701059982
10/6/2020, 3:50:23 , 0.03975482, -0.08779007, 2.141882, 0.001982377, -0.0004000417, -0.00224852, 0.08100001, 122, 33, 0, 190, 0, t, 441252920, -701059982
10/6/2020, 3:50:23 , 0.03975482, -0.08779007, 2.141882, 0.001982377, -0.0004000417, -0.00224852, 0.317, 122, 33, 0, 190, 0, t, 441252920, -701059982
10/6/2020, 3:50:23 , 0.03975482, -0.08779007, 2.141882, 0.001982377, -0.0004000417, -0.00224852, 0.317, 122, 33, 0, 190, 0, t, 441252938, -701059964
10/6/2020, 3:50:24 , 0.04463472, -0.08881552, 2.141159, -0.001155471, -0.001629124, -0.001456644, 0.317, 122, 33, 0, 190, 0, t, 441252938, -701059964
10/6/2020, 3:50:24 , 0.04463472, -0.08881552, 2.141159, -0.001155471, -0.001629124, -0.001456644, 0.089, 122, 33, 0, 190, 0, t, 441252938, -701059964
10/6/2020, 3:50:24 , 0.04407455, -0.09058488, 2.140728, -0.0004086159, 0.0007119603, -0.001797635, 0.089, 122, 33, 0, 190, 0, t, 441252938, -701059964
10/6/2020, 3:50:24 , 0.04407455, -0.09058488, 2.140728, -0.0004086159, 0.0007119603, -0.001797635, 0.148, 122, 33, 0, 190, 0, t, 441252938, -701059964
10/6/2020, 3:50:24 , 0.04407455, -0.09058488, 2.140728, -0.0004086159, 0.0007119603, -0.001797635, 0.148, 122, 33, 0, 190, 0, t, 441252935, -701059956
10/6/2020, 3:50:25 , 0.04711249, -0.09042811, 2.140397, -0.002970419, -0.001067401, -0.0004130807, 0.148, 122, 33, 0, 190, 0, t, 441252935, -701059956
10/6/2020, 3:50:25 , 0.04711249, -0.09042811, 2.140397, -0.002970419, -0.001067401, -0.0004130807, 0.09200001, 122, 33, 0, 190, 0, t, 441252935, -701059956
10/6/2020, 3:50:25 , 0.04711249, -0.09042811, 2.140397, -0.002970419, -0.001067401, -0.0004130807, 0.09200001, 122, 33, 0, 190, 0, t, 441252929, -701059949
10/6/2020, 3:50:25 , 0.04342277, -0.08899174, 2.140724, 0.0008541532, 0.0002325848, -0.001690894, 0.09200001, 122, 33, 0, 190, 0, t, 441252929, -701059949
10/6/2020, 3:50:25 , 0.04342277, -0.08899174, 2.140724, 0.0008541532, 0.0002325848, -0.001690894, 0.147, 122, 33, 0, 190, 0, t, 441252929, -701059949
10/6/2020, 3:50:25 , 0.05073334, -0.09052058, 2.140027, -0.001332791, -0.002229508, -0.001311563, 0.147, 122, 33, 0, 190, 0, t, 441252929, -701059949
10/6/2020, 3:50:25 , 0.05073334, -0.09052058, 2.140027, -0.001332791, -0.002229508, -0.001311563, 0.041, 122, 33, 0, 190, 0, t, 441252929, -701059949
10/6/2020, 3:50:26 , 0.05073334, -0.09052058, 2.140027, -0.001332791, -0.002229508, -0.001311563, 0.041, 122, 33, 0, 190, 0, t, 441252910, -701059952
10/6/2020, 3:50:26 , 0.04537851, -0.08777807, 2.13939, 0.002276557, -0.0009005084, 0.00102506, 0.041, 122, 33, 0, 190, 0, t, 441252910, -701059952
10/6/2020, 3:50:26 , 0.04537851, -0.08777807, 2.13939, 0.002276557, -0.0009005084, 0.00102506, 0.273, 122, 33, 0, 190, 0, t, 441252910, -701059952
10/6/2020, 3:50:26 , 0.04537851, -0.08777807, 2.13939, 0.002276557, -0.0009005084, 0.00102506, 0.273, 122, 33, 0, 190, 0, t, 441252911, -701059954
10/6/2020, 3:50:27 , 0.03934668, -0.08804017, 2.139574, 0.001440116, -0.000735925, -0.001377471, 0.273, 122, 33, 0, 190, 0, t, 441252911, -701059954
10/6/2020, 3:50:27 , 0.03934668, -0.08804017, 2.139574, 0.001440116, -0.000735925, -0.001377471, 0.047, 122, 33, 0, 190, 0, t, 441252911, -701059954
10/6/2020, 3:50:27 , 0.04798546, -0.09086679, 2.139057, -0.004414528, -0.001922854, 0.001260214, 0.047, 122, 33, 0, 190, 0, t, 441252911, -701059954
10/6/2020, 3:50:27 , 0.04798546, -0.09086679, 2.139057, -0.004414528, -0.001922854, 0.001260214, 0.07600001, 122, 33, 0, 190, 0, t, 441252911, -701059954
10/6/2020, 3:50:27 , 0.04798546, -0.09086679, 2.139057, -0.004414528, -0.001922854, 0.001260214, 0.07600001, 122, 33, 0, 190, 0, t, 441252898, -701059960
10/6/2020, 3:50:27 , 0.04727735, -0.09029193, 2.138592, -0.002188273, -0.001203374, -0.001626926, 0.07600001, 122, 33, 0, 190, 0, t, 441252898, -701059960
10/6/2020, 3:50:27 , 0.04727735, -0.09029193, 2.138592, -0.002188273, -0.001203374, -0.001626926, 0.116, 122, 33, 0, 190, 0, t, 441252898, -701059960
10/6/2020, 3:50:28 , 0.04727735, -0.09029193, 2.138592, -0.002188273, -0.001203374, -0.001626926, 0.116, 122, 33, 0, 190, 0, t, 441252879, -701059969
10/6/2020, 3:50:28 , 0.04430182, -0.08899254, 2.138544, 0.0009353161, -0.002390682, -0.001214992, 0.116, 122, 33, 0, 190, 0, t, 441252879, -701059969
10/6/2020, 3:50:28 , 0.04430182, -0.08899254, 2.138544, 0.0009353161, -0.002390682, -0.001214992, 0.11, 122, 33, 0, 190, 0, t, 441252879, -701059969
10/6/2020, 3:50:28 , 0.04414372, -0.08995276, 2.13845, -0.0006303587, -0.001901325, -0.003200462, 0.11, 122, 33, 0, 190, 0, t, 441252879, -701059969
10/6/2020, 3:50:28 , 0.04414372, -0.08995276, 2.13845, -0.0006303587, -0.001901325, -0.003200462, 0.103, 122, 33, 0, 190, 0, t, 441252879, -701059969
10/6/2020, 3:50:28 , 0.04414372, -0.08995276, 2.13845, -0.0006303587, -0.001901325, -0.003200462, 0.103, 122, 33, 0, 190, 0, t, 441252877, -701059976
10/6/2020, 3:50:29 , 0.04726914, -0.08972248, 2.137971, 0.0001067063, -0.000555838, 0.0004743822, 0.103, 122, 33, 0, 190, 0, t, 441252877, -701059976
10/6/2020, 3:50:29 , 0.04726914, -0.08972248, 2.137971, 0.0001067063, -0.000555838, 0.0004743822, 0.041, 122, 33, 0, 190, 0, t, 441252877, -701059976
10/6/2020, 3:50:29 , 0.04969887, -0.09024826, 2.137198, -0.0008015912, -0.001249311, -0.001489695, 0.041, 122, 33, 0, 190, 0, t, 441252877, -701059976
10/6/2020, 3:50:29 , 0.04969887, -0.09024826, 2.137198, -0.0008015912, -0.001249311, -0.001489695, 0.262, 122, 33, 0, 190, 0, t, 441252877, -701059976
10/6/2020, 3:50:29 , 0.04969887, -0.09024826, 2.137198, -0.0008015912, -0.001249311, -0.001489695, 0.262, 122, 33, 0, 190, 0, t, 441252859, -701059990
10/6/2020, 3:50:29 , 0.04905774, -0.09271843, 2.136676, -0.002811855, -0.001104077, -0.001412887, 0.262, 122, 33, 0, 190, 0, t, 441252859, -701059990
10/6/2020, 3:50:29 , 0.04905774, -0.09271843, 2.136676, -0.002811855, -0.001104077, -0.001412887, 0.071, 122, 33, 0, 190, 0, t, 441252859, -701059990
10/6/2020, 3:50:30 , 0.04905774, -0.09271843, 2.136676, -0.002811855, -0.001104077, -0.001412887, 0.071, 122, 33, 0, 190, 0, t, 441252834, -701060014
10/6/2020, 3:50:30 , 0.05111751, -0.09288421, 2.13599, 2.655154E-05, -0.00185961, -0.001781363, 0.071, 122, 33, 0, 190, 0, t, 441252834, -701060014
10/6/2020, 3:50:30 , 0.05111751, -0.09288421, 2.13599, 2.655154E-05, -0.00185961, -0.001781363, 0.097, 122, 33, 0, 190, 0, t, 441252834, -701060014
10/6/2020, 3:50:30 , 0.0509059, -0.09505893, 2.135512, 0.001688831, 0.001442001, 0.001886968, 0.097, 122, 33, 0, 190, 0, t, 441252834, -701060014
10/6/2020, 3:50:30 , 0.0509059, -0.09505893, 2.135512, 0.001688831, 0.001442001, 0.001886968, 0.324, 122, 33, 0, 190, 0, t, 441252834, -701060014
10/6/2020, 3:50:30 , 0.0509059, -0.09505893, 2.135512, 0.001688831, 0.001442001, 0.001886968, 0.324, 122, 33, 0, 190, 0, t, 441252822, -701060023
10/6/2020, 3:50:31 , 0.05291713, -0.09595496, 2.135077, 0.0008731983, 0.0006806827, -0.00257289, 0.324, 122, 33, 0, 190, 0, t, 441252822, -701060023
10/6/2020, 3:50:31 , 0.05291713, -0.09595496, 2.135077, 0.0008731983, 0.0006806827, -0.00257289, 0.293, 122, 33, 0, 190, 0, t, 441252822, -701060023
10/6/2020, 3:50:31 , 0.05291713, -0.09595496, 2.135077, 0.0008731983, 0.0006806827, -0.00257289, 0.293, 122, 33, 0, 190, 0, t, 441252810, -701060030
10/6/2020, 3:50:31 , 0.05283061, -0.09471245, 2.135185, -0.0001672087, -0.001003611, -0.00234684, 0.293, 122, 33, 0, 190, 0, t, 441252810, -701060030
10/6/2020, 3:50:31 , 0.05283061, -0.09471245, 2.135185, -0.0001672087, -0.001003611, -0.00234684, 0.361, 122, 33, 0, 190, 0, t, 441252810, -701060030
10/6/2020, 3:50:32 , 0.05015773, -0.09125049, 2.135254, 0.0020991, -0.0002594157, 0.000189634, 0.361, 122, 33, 0, 190, 0, t, 441252810, -701060030
10/6/2020, 3:50:32 , 0.05015773, -0.09125049, 2.135254, 0.0020991, -0.0002594157, 0.000189634, 0.5330001, 122, 33, 0, 190, 0, t, 441252810, -701060030
10/6/2020, 3:50:32 , 0.05015773, -0.09125049, 2.135254, 0.0020991, -0.0002594157, 0.000189634, 0.5330001, 122, 33, 0, 190, 0, t, 441252784, -701060046
10/6/2020, 3:50:32 , 0.05118092, -0.09409382, 2.134826, -0.003264701, -0.000672875, -0.001442801, 0.5330001, 122, 33, 0, 190, 0, t, 441252784, -701060046
10/6/2020, 3:50:32 , 0.05118092, -0.09409382, 2.134826, -0.003264701, -0.000672875, -0.001442801, 0.205, 122, 33, 0, 190, 0, t, 441252784, -701060046
10/6/2020, 3:50:32 , 0.05118092, -0.09409382, 2.134826, -0.003264701, -0.000672875, -0.001442801, 0.205, 122, 33, 0, 190, 0, t, 441252770, -701060052
10/6/2020, 3:50:33 , 0.0485012, -0.09153985, 2.135371, -0.0002494748, 0.0001490894, 0.0006212872, 0.205, 122, 33, 0, 190, 0, t, 441252770, -701060052
10/6/2020, 3:50:33 , 0.0485012, -0.09153985, 2.135371, -0.0002494748, 0.0001490894, 0.0006212872, 0.345, 122, 33, 0, 190, 0, t, 441252770, -701060052
10/6/2020, 3:50:33 , 0.04943564, -0.08977842, 2.135015, -0.001302859, 6.914139E-05, 0.001158586, 0.345, 122, 33, 0, 190, 0, t, 441252770, -701060052
10/6/2020, 3:50:33 , 0.04943564, -0.08977842, 2.135015, -0.001302859, 6.914139E-05, 0.001158586, 0.467, 122, 33, 0, 190, 0, t, 441252770, -701060052
10/6/2020, 3:50:33 , 0.04943564, -0.08977842, 2.135015, -0.001302859, 6.914139E-05, 0.001158586, 0.467, 122, 33, 0, 190, 0, t, 441252759, -701060078
10/6/2020, 3:50:33 , 0.0424179, -0.08300187, 2.135406, -0.001160945, -0.001792277, 6.198697E-05, 0.467, 122, 33, 0, 190, 0, t, 441252759, -701060078
10/6/2020, 3:50:33 , 0.0424179, -0.08300187, 2.135406, -0.001160945, -0.001792277, 6.198697E-05, 0.313, 122, 33, 0, 190, 0, t, 441252759, -701060078
10/6/2020, 3:50:34 , 0.04982611, -0.08982686, 2.134151, -0.002155714, 0.000194768, -0.004153792, 0.313, 122, 33, 0, 190, 0, t, 441252759, -701060078
10/6/2020, 3:50:34 , 0.04982611, -0.08982686, 2.134151, -0.002155714, 0.000194768, -0.004153792, 0.233, 122, 33, 0, 190, 0, t, 441252759, -701060078
10/6/2020, 3:50:34 , 0.04982611, -0.08982686, 2.134151, -0.002155714, 0.000194768, -0.004153792, 0.233, 122, 33, 0, 190, 0, t, 441252725, -701060084
10/6/2020, 3:50:34 , 0.04817064, -0.0925665, 2.13413, 0.0004667626, -0.001432243, -0.0002272688, 0.233, 122, 33, 0, 190, 0, t, 441252725, -701060084
10/6/2020, 3:50:34 , 0.04817064, -0.0925665, 2.13413, 0.0004667626, -0.001432243, -0.0002272688, 0.301, 122, 33, 0, 190, 0, t, 441252725, -701060084
10/6/2020, 3:50:34 , 0.04817064, -0.0925665, 2.13413, 0.0004667626, -0.001432243, -0.0002272688, 0.301, 122, 33, 0, 190, 0, t, 441252690, -701060085
10/6/2020, 3:50:35 , 0.0547966, -0.09636533, 2.133121, -0.002741574, -0.001557335, -0.001612974, 0.301, 122, 33, 0, 190, 0, t, 441252690, -701060085
10/6/2020, 3:50:35 , 0.0547966, -0.09636533, 2.133121, -0.002741574, -0.001557335, -0.001612974, 0.538, 122, 33, 0, 190, 0, t, 441252690, -701060085
